[
    {
        "stop_code":"CRG2",
        "stop_name":"CORGA",
        "stop_lat":41.2098796213,
        "stop_lon":-8.5752284256,
        "stop_url":"https://www.stcp.pt/api/stops/CRG2/realtime"
    },
    {
        "stop_code":"FMGO3",
        "stop_name":"FORMIGUEIRO",
        "stop_lat":41.2052222269,
        "stop_lon":-8.5867222632,
        "stop_url":"https://www.stcp.pt/api/stops/FMGO3/realtime"
    },
    {
        "stop_code":"MRT2",
        "stop_name":"MIRANTE",
        "stop_lat":41.2133697515,
        "stop_lon":-8.5632015796,
        "stop_url":"https://www.stcp.pt/api/stops/MRT2/realtime"
    },
    {
        "stop_code":"FMGO4",
        "stop_name":"FORMIGUEIRO",
        "stop_lat":41.2053502122,
        "stop_lon":-8.5866448182,
        "stop_url":"https://www.stcp.pt/api/stops/FMGO4/realtime"
    },
    {
        "stop_code":"PCUA1",
        "stop_name":"PÍCUA",
        "stop_lat":41.2045978102,
        "stop_lon":-8.5693054868,
        "stop_url":"https://www.stcp.pt/api/stops/PCUA1/realtime"
    },
    {
        "stop_code":"CRG1",
        "stop_name":"CORGA",
        "stop_lat":41.2096282951,
        "stop_lon":-8.5750930686,
        "stop_url":"https://www.stcp.pt/api/stops/CRG1/realtime"
    },
    {
        "stop_code":"SRG2",
        "stop_name":"SRA. DA GUADALUPE",
        "stop_lat":41.2032500242,
        "stop_lon":-8.5872499941,
        "stop_url":"https://www.stcp.pt/api/stops/SRG2/realtime"
    },
    {
        "stop_code":"LNC2",
        "stop_name":"LEONARDO COIMBRA",
        "stop_lat":41.1991666287,
        "stop_lon":-8.5998055954,
        "stop_url":"https://www.stcp.pt/api/stops/LNC2/realtime"
    },
    {
        "stop_code":"PRD1",
        "stop_name":"PARADA",
        "stop_lat":41.2020494116,
        "stop_lon":-8.5955757132,
        "stop_url":"https://www.stcp.pt/api/stops/PRD1/realtime"
    },
    {
        "stop_code":"AVLM1",
        "stop_name":"AV.LIDADOR DA MAIA",
        "stop_lat":41.2056652446,
        "stop_lon":-8.5611242623,
        "stop_url":"https://www.stcp.pt/api/stops/AVLM1/realtime"
    },
    {
        "stop_code":"TRM1",
        "stop_name":"TERRAMONTE",
        "stop_lat":41.2042336938,
        "stop_lon":-8.5965252467,
        "stop_url":"https://www.stcp.pt/api/stops/TRM1/realtime"
    },
    {
        "stop_code":"MAIE2",
        "stop_name":"MAIA (ESTÁDIO)",
        "stop_lat":41.2364100126,
        "stop_lon":-8.6157168106,
        "stop_url":"https://www.stcp.pt/api/stops/MAIE2/realtime"
    },
    {
        "stop_code":"PSP1",
        "stop_name":"PSP",
        "stop_lat":41.2310967718,
        "stop_lon":-8.6216987385,
        "stop_url":"https://www.stcp.pt/api/stops/PSP1/realtime"
    },
    {
        "stop_code":"SBO2",
        "stop_name":"SOBREIRO",
        "stop_lat":41.2339121592,
        "stop_lon":-8.6203061965,
        "stop_url":"https://www.stcp.pt/api/stops/SBO2/realtime"
    },
    {
        "stop_code":"VBR1",
        "stop_name":"VISCONDE BARREIROS",
        "stop_lat":41.232585856,
        "stop_lon":-8.6251211149,
        "stop_url":"https://www.stcp.pt/api/stops/VBR1/realtime"
    },
    {
        "stop_code":"MAIA4",
        "stop_name":"MAIA (CAMARA)",
        "stop_lat":41.2326610065,
        "stop_lon":-8.6222829336,
        "stop_url":"https://www.stcp.pt/api/stops/MAIA4/realtime"
    },
    {
        "stop_code":"VBR2",
        "stop_name":"VISCONDE BARREIROS",
        "stop_lat":41.232639257,
        "stop_lon":-8.6273638864,
        "stop_url":"https://www.stcp.pt/api/stops/VBR2/realtime"
    },
    {
        "stop_code":"PIN1",
        "stop_name":"PINHEIRAL",
        "stop_lat":41.2368105633,
        "stop_lon":-8.6297532422,
        "stop_url":"https://www.stcp.pt/api/stops/PIN1/realtime"
    },
    {
        "stop_code":"PRU3",
        "stop_name":"PEDRAS RUBRAS",
        "stop_lat":41.2387499822,
        "stop_lon":-8.6668333577,
        "stop_url":"https://www.stcp.pt/api/stops/PRU3/realtime"
    },
    {
        "stop_code":"SL1",
        "stop_name":"SANTOS LEITE",
        "stop_lat":41.2274341967,
        "stop_lon":-8.6189076652,
        "stop_url":"https://www.stcp.pt/api/stops/SL1/realtime"
    },
    {
        "stop_code":"RCNH1",
        "stop_name":"R.CONCHAS",
        "stop_lat":41.2211434622,
        "stop_lon":-8.5903213281,
        "stop_url":"https://www.stcp.pt/api/stops/RCNH1/realtime"
    },
    {
        "stop_code":"ARRG1",
        "stop_name":"ARREGADAS",
        "stop_lat":41.2164889417,
        "stop_lon":-8.5850647937,
        "stop_url":"https://www.stcp.pt/api/stops/ARRG1/realtime"
    },
    {
        "stop_code":"ARRG2",
        "stop_name":"ARREGADAS",
        "stop_lat":41.2168888934,
        "stop_lon":-8.5840832935,
        "stop_url":"https://www.stcp.pt/api/stops/ARRG2/realtime"
    },
    {
        "stop_code":"AGR2",
        "stop_name":"AGRA",
        "stop_lat":41.2124431195,
        "stop_lon":-8.5944798398,
        "stop_url":"https://www.stcp.pt/api/stops/AGR2/realtime"
    },
    {
        "stop_code":"CZG1",
        "stop_name":"CRUZ. GUARDEIRAS",
        "stop_lat":41.2523990989,
        "stop_lon":-8.6580088957,
        "stop_url":"https://www.stcp.pt/api/stops/CZG1/realtime"
    },
    {
        "stop_code":"GU1",
        "stop_name":"GUARDA",
        "stop_lat":41.245337478,
        "stop_lon":-8.638689079,
        "stop_url":"https://www.stcp.pt/api/stops/GU1/realtime"
    },
    {
        "stop_code":"GU2",
        "stop_name":"GUARDA",
        "stop_lat":41.2461306461,
        "stop_lon":-8.6390378354,
        "stop_url":"https://www.stcp.pt/api/stops/GU2/realtime"
    },
    {
        "stop_code":"GUD1",
        "stop_name":"GUARDEIRAS",
        "stop_lat":41.2540114131,
        "stop_lon":-8.6556301862,
        "stop_url":"https://www.stcp.pt/api/stops/GUD1/realtime"
    },
    {
        "stop_code":"GDM11",
        "stop_name":"GODIM",
        "stop_lat":41.2414603478,
        "stop_lon":-8.6377163699,
        "stop_url":"https://www.stcp.pt/api/stops/GDM11/realtime"
    },
    {
        "stop_code":"GDM12",
        "stop_name":"GODIM",
        "stop_lat":41.2413683672,
        "stop_lon":-8.6375224095,
        "stop_url":"https://www.stcp.pt/api/stops/GDM12/realtime"
    },
    {
        "stop_code":"RCNH2",
        "stop_name":"R. CONCHAS",
        "stop_lat":41.221173236,
        "stop_lon":-8.5907358253,
        "stop_url":"https://www.stcp.pt/api/stops/RCNH2/realtime"
    },
    {
        "stop_code":"GNDV2",
        "stop_name":"GONDIVINHO",
        "stop_lat":41.2111039453,
        "stop_lon":-8.6495687158,
        "stop_url":"https://www.stcp.pt/api/stops/GNDV2/realtime"
    },
    {
        "stop_code":"AMR2",
        "stop_name":"AMOROSA",
        "stop_lat":41.2021512428,
        "stop_lon":-8.6968360571,
        "stop_url":"https://www.stcp.pt/api/stops/AMR2/realtime"
    },
    {
        "stop_code":"GSUL2",
        "stop_name":"GONDIVAI (SUL)",
        "stop_lat":41.2080189316,
        "stop_lon":-8.6332469375,
        "stop_url":"https://www.stcp.pt/api/stops/GSUL2/realtime"
    },
    {
        "stop_code":"CAL1",
        "stop_name":"CAL",
        "stop_lat":41.2051944608,
        "stop_lon":-8.6432499472,
        "stop_url":"https://www.stcp.pt/api/stops/CAL1/realtime"
    },
    {
        "stop_code":"ESP1",
        "stop_name":"ESPOSADE",
        "stop_lat":41.2131944443,
        "stop_lon":-8.6498888982,
        "stop_url":"https://www.stcp.pt/api/stops/ESP1/realtime"
    },
    {
        "stop_code":"EXP1",
        "stop_name":"EXPONOR",
        "stop_lat":41.1982274895,
        "stop_lon":-8.6915435044,
        "stop_url":"https://www.stcp.pt/api/stops/EXP1/realtime"
    },
    {
        "stop_code":"EXP2",
        "stop_name":"EXPONOR",
        "stop_lat":41.1982830003,
        "stop_lon":-8.6918491611,
        "stop_url":"https://www.stcp.pt/api/stops/EXP2/realtime"
    },
    {
        "stop_code":"GNDV1",
        "stop_name":"GONDIVINHO",
        "stop_lat":41.2113830758,
        "stop_lon":-8.6493881267,
        "stop_url":"https://www.stcp.pt/api/stops/GNDV1/realtime"
    },
    {
        "stop_code":"BAT2",
        "stop_name":"BATARIA",
        "stop_lat":41.2058258124,
        "stop_lon":-8.6967877781,
        "stop_url":"https://www.stcp.pt/api/stops/BAT2/realtime"
    },
    {
        "stop_code":"SR2",
        "stop_name":"S. ROQUE",
        "stop_lat":41.1661471699,
        "stop_lon":-8.5693493773,
        "stop_url":"https://www.stcp.pt/api/stops/SR2/realtime"
    },
    {
        "stop_code":"STG4",
        "stop_name":"SANTEGÃOS",
        "stop_lat":41.1915149842,
        "stop_lon":-8.5707928005,
        "stop_url":"https://www.stcp.pt/api/stops/STG4/realtime"
    },
    {
        "stop_code":"TMEI1",
        "stop_name":"TV.MEIRAL",
        "stop_lat":41.1671366529,
        "stop_lon":-8.5627543428,
        "stop_url":"https://www.stcp.pt/api/stops/TMEI1/realtime"
    },
    {
        "stop_code":"FARM1",
        "stop_name":"FORÇAS ARMADAS",
        "stop_lat":41.1902301885,
        "stop_lon":-8.5684430501,
        "stop_url":"https://www.stcp.pt/api/stops/FARM1/realtime"
    },
    {
        "stop_code":"AAS2",
        "stop_name":"ANTÓNIO  AUG.SILVA",
        "stop_lat":41.1676110987,
        "stop_lon":-8.5580555096,
        "stop_url":"https://www.stcp.pt/api/stops/AAS2/realtime"
    },
    {
        "stop_code":"MED1",
        "stop_name":"MEDANCELHE",
        "stop_lat":41.1896388868,
        "stop_lon":-8.5584444483,
        "stop_url":"https://www.stcp.pt/api/stops/MED1/realtime"
    },
    {
        "stop_code":"CTN1",
        "stop_name":"CASTANHEIRA",
        "stop_lat":41.1813548963,
        "stop_lon":-8.5662778076,
        "stop_url":"https://www.stcp.pt/api/stops/CTN1/realtime"
    },
    {
        "stop_code":"CHV2",
        "stop_name":"CHÃO VERDE",
        "stop_lat":41.1725833119,
        "stop_lon":-8.5569166826,
        "stop_url":"https://www.stcp.pt/api/stops/CHV2/realtime"
    },
    {
        "stop_code":"INFS2",
        "stop_name":"INFANTE SANTO",
        "stop_lat":41.1673332905,
        "stop_lon":-8.548861131,
        "stop_url":"https://www.stcp.pt/api/stops/INFS2/realtime"
    },
    {
        "stop_code":"STG3",
        "stop_name":"SANTEGÃOS",
        "stop_lat":41.1912499415,
        "stop_lon":-8.5708055729,
        "stop_url":"https://www.stcp.pt/api/stops/STG3/realtime"
    },
    {
        "stop_code":"VFRR1",
        "stop_name":"VALE FERREIROS",
        "stop_lat":41.1810833009,
        "stop_lon":-8.5350555634,
        "stop_url":"https://www.stcp.pt/api/stops/VFRR1/realtime"
    },
    {
        "stop_code":"ECC2",
        "stop_name":"ENTRE CANCELAS",
        "stop_lat":41.1818332793,
        "stop_lon":-8.5324444538,
        "stop_url":"https://www.stcp.pt/api/stops/ECC2/realtime"
    },
    {
        "stop_code":"MTP2",
        "stop_name":"MONTE PEDRO",
        "stop_lat":41.1895277541,
        "stop_lon":-8.5243889306,
        "stop_url":"https://www.stcp.pt/api/stops/MTP2/realtime"
    },
    {
        "stop_code":"ASRR4",
        "stop_name":"ALTO DA SERRA",
        "stop_lat":41.193021982,
        "stop_lon":-8.5183834766,
        "stop_url":"https://www.stcp.pt/api/stops/ASRR4/realtime"
    },
    {
        "stop_code":"VFRR2",
        "stop_name":"VALE FERREIROS",
        "stop_lat":41.18116668,
        "stop_lon":-8.535055598,
        "stop_url":"https://www.stcp.pt/api/stops/VFRR2/realtime"
    },
    {
        "stop_code":"ECC1",
        "stop_name":"ENTRE CANCELAS",
        "stop_lat":41.1817500293,
        "stop_lon":-8.5322778057,
        "stop_url":"https://www.stcp.pt/api/stops/ECC1/realtime"
    },
    {
        "stop_code":"SXO2",
        "stop_name":"SEIXO",
        "stop_lat":41.1845277702,
        "stop_lon":-8.52658336,
        "stop_url":"https://www.stcp.pt/api/stops/SXO2/realtime"
    },
    {
        "stop_code":"SXO1",
        "stop_name":"SEIXO",
        "stop_lat":41.1848055572,
        "stop_lon":-8.5260555931,
        "stop_url":"https://www.stcp.pt/api/stops/SXO1/realtime"
    },
    {
        "stop_code":"CMPO1",
        "stop_name":"IGREJA CAMPO",
        "stop_lat":41.1824166623,
        "stop_lon":-8.4641110634,
        "stop_url":"https://www.stcp.pt/api/stops/CMPO1/realtime"
    },
    {
        "stop_code":"TPT2",
        "stop_name":"TV. DA PONTE",
        "stop_lat":41.1674444385,
        "stop_lon":-8.5646944449,
        "stop_url":"https://www.stcp.pt/api/stops/TPT2/realtime"
    },
    {
        "stop_code":"RF1",
        "stop_name":"RIO FERREIRA",
        "stop_lat":41.1518380682,
        "stop_lon":-8.5074361436,
        "stop_url":"https://www.stcp.pt/api/stops/RF1/realtime"
    },
    {
        "stop_code":"ACD1",
        "stop_name":"AFONSO CORDEIRO",
        "stop_lat":41.1788055213,
        "stop_lon":-8.68488884,
        "stop_url":"https://www.stcp.pt/api/stops/ACD1/realtime"
    },
    {
        "stop_code":"ERM2",
        "stop_name":"ERMESINDE (ESTAÇÃO)",
        "stop_lat":41.2166944736,
        "stop_lon":-8.5536666706,
        "stop_url":"https://www.stcp.pt/api/stops/ERM2/realtime"
    },
    {
        "stop_code":"ERM3",
        "stop_name":"ERMESINDE (ESTAÇÃO)",
        "stop_lat":41.2165722797,
        "stop_lon":-8.5536440637,
        "stop_url":"https://www.stcp.pt/api/stops/ERM3/realtime"
    },
    {
        "stop_code":"PVH1",
        "stop_name":"PAVILHÃO CPN",
        "stop_lat":41.2075499748,
        "stop_lon":-8.5561257169,
        "stop_url":"https://www.stcp.pt/api/stops/PVH1/realtime"
    },
    {
        "stop_code":"PTCR2",
        "stop_name":"PORTO CARREIRO",
        "stop_lat":41.2111021907,
        "stop_lon":-8.5573290985,
        "stop_url":"https://www.stcp.pt/api/stops/PTCR2/realtime"
    },
    {
        "stop_code":"TVG1",
        "stop_name":"TRAVAGEM",
        "stop_lat":41.2266259824,
        "stop_lon":-8.5540112284,
        "stop_url":"https://www.stcp.pt/api/stops/TVG1/realtime"
    },
    {
        "stop_code":"MSHP3",
        "stop_name":"MAIASHOPPING",
        "stop_lat":41.2192458811,
        "stop_lon":-8.5587055472,
        "stop_url":"https://www.stcp.pt/api/stops/MSHP3/realtime"
    },
    {
        "stop_code":"SA3",
        "stop_name":"SÁ",
        "stop_lat":41.2112222118,
        "stop_lon":-8.5471666541,
        "stop_url":"https://www.stcp.pt/api/stops/SA3/realtime"
    },
    {
        "stop_code":"SA4",
        "stop_name":"SÁ",
        "stop_lat":41.2109685944,
        "stop_lon":-8.5470332949,
        "stop_url":"https://www.stcp.pt/api/stops/SA4/realtime"
    },
    {
        "stop_code":"FMGC1",
        "stop_name":"FORMIGA CEMITÉRIO",
        "stop_lat":41.2096849915,
        "stop_lon":-8.5421742863,
        "stop_url":"https://www.stcp.pt/api/stops/FMGC1/realtime"
    },
    {
        "stop_code":"COVN2",
        "stop_name":"COVINA",
        "stop_lat":41.2097342267,
        "stop_lon":-8.5311891263,
        "stop_url":"https://www.stcp.pt/api/stops/COVN2/realtime"
    },
    {
        "stop_code":"4CAM4",
        "stop_name":"4 CAMINHOS",
        "stop_lat":41.2060833351,
        "stop_lon":-8.5288333031,
        "stop_url":"https://www.stcp.pt/api/stops/4CAM4/realtime"
    },
    {
        "stop_code":"MSHP4",
        "stop_name":"MAIASHOPPING",
        "stop_lat":41.2194405435,
        "stop_lon":-8.5588776996,
        "stop_url":"https://www.stcp.pt/api/stops/MSHP4/realtime"
    },
    {
        "stop_code":"FND2",
        "stop_name":"FUNDIÇÃO",
        "stop_lat":41.2089943722,
        "stop_lon":-8.5297784032,
        "stop_url":"https://www.stcp.pt/api/stops/FND2/realtime"
    },
    {
        "stop_code":"CHAO2",
        "stop_name":"CHÃOS",
        "stop_lat":41.2102777685,
        "stop_lon":-8.538305489,
        "stop_url":"https://www.stcp.pt/api/stops/CHAO2/realtime"
    },
    {
        "stop_code":"CHAO1",
        "stop_name":"CHÃOS",
        "stop_lat":41.2101089118,
        "stop_lon":-8.5385175157,
        "stop_url":"https://www.stcp.pt/api/stops/CHAO1/realtime"
    },
    {
        "stop_code":"PHIP2",
        "stop_name":"PEDRO HISPANO",
        "stop_lat":41.2282777979,
        "stop_lon":-8.5630277198,
        "stop_url":"https://www.stcp.pt/api/stops/PHIP2/realtime"
    },
    {
        "stop_code":"PVH2",
        "stop_name":"PAVILHÃO CPN",
        "stop_lat":41.2074972679,
        "stop_lon":-8.555767688,
        "stop_url":"https://www.stcp.pt/api/stops/PVH2/realtime"
    },
    {
        "stop_code":"CML2",
        "stop_name":"CAMÉLIAS",
        "stop_lat":41.2174040563,
        "stop_lon":-8.5588811509,
        "stop_url":"https://www.stcp.pt/api/stops/CML2/realtime"
    },
    {
        "stop_code":"PINH1",
        "stop_name":"PINHEIRO",
        "stop_lat":41.2192732548,
        "stop_lon":-8.543139788,
        "stop_url":"https://www.stcp.pt/api/stops/PINH1/realtime"
    },
    {
        "stop_code":"VASG1",
        "stop_name":"VASCO DA GAMA",
        "stop_lat":41.2164127903,
        "stop_lon":-8.5513334889,
        "stop_url":"https://www.stcp.pt/api/stops/VASG1/realtime"
    },
    {
        "stop_code":"GAN1",
        "stop_name":"GANDRA",
        "stop_lat":41.2157913346,
        "stop_lon":-8.559240799,
        "stop_url":"https://www.stcp.pt/api/stops/GAN1/realtime"
    },
    {
        "stop_code":"PML1",
        "stop_name":"PALMILHEIRA",
        "stop_lat":41.2047328123,
        "stop_lon":-8.5562777754,
        "stop_url":"https://www.stcp.pt/api/stops/PML1/realtime"
    },
    {
        "stop_code":"CML1",
        "stop_name":"CAMÉLIAS",
        "stop_lat":41.2172199904,
        "stop_lon":-8.5586923782,
        "stop_url":"https://www.stcp.pt/api/stops/CML1/realtime"
    },
    {
        "stop_code":"9AG2",
        "stop_name":"9 DE AGOSTO",
        "stop_lat":41.2119234659,
        "stop_lon":-8.5321862658,
        "stop_url":"https://www.stcp.pt/api/stops/9AG2/realtime"
    },
    {
        "stop_code":"SONH",
        "stop_name":"SONHOS",
        "stop_lat":41.216535059,
        "stop_lon":-8.5415045902,
        "stop_url":"https://www.stcp.pt/api/stops/SONH/realtime"
    },
    {
        "stop_code":"ERMI1",
        "stop_name":"ERMESINDE (IGREJA)",
        "stop_lat":41.2194443876,
        "stop_lon":-8.5533610456,
        "stop_url":"https://www.stcp.pt/api/stops/ERMI1/realtime"
    },
    {
        "stop_code":"STNH2",
        "stop_name":"SOUTINHO",
        "stop_lat":41.2220161869,
        "stop_lon":-8.5432433111,
        "stop_url":"https://www.stcp.pt/api/stops/STNH2/realtime"
    },
    {
        "stop_code":"COD",
        "stop_name":"LGO DA CODICEIRA",
        "stop_lat":41.2446259727,
        "stop_lon":-8.5198174603,
        "stop_url":"https://www.stcp.pt/api/stops/COD/realtime"
    },
    {
        "stop_code":"TAZ1",
        "stop_name":"TAPADA AZEVEDO",
        "stop_lat":41.2021944419,
        "stop_lon":-8.5268889339,
        "stop_url":"https://www.stcp.pt/api/stops/TAZ1/realtime"
    },
    {
        "stop_code":"FS1",
        "stop_name":"FLOR DA SERRA",
        "stop_lat":41.196361072,
        "stop_lon":-8.5206944386,
        "stop_url":"https://www.stcp.pt/api/stops/FS1/realtime"
    },
    {
        "stop_code":"ASRR3",
        "stop_name":"ALTO DA SERRA",
        "stop_lat":41.1944999418,
        "stop_lon":-8.5181666312,
        "stop_url":"https://www.stcp.pt/api/stops/ASRR3/realtime"
    },
    {
        "stop_code":"CTS",
        "stop_name":"CASTELOS",
        "stop_lat":41.1680468972,
        "stop_lon":-8.6295311252,
        "stop_url":"https://www.stcp.pt/api/stops/CTS/realtime"
    },
    {
        "stop_code":"CTV1",
        "stop_name":"COTOVIAS",
        "stop_lat":41.180638912,
        "stop_lon":-8.6366388912,
        "stop_url":"https://www.stcp.pt/api/stops/CTV1/realtime"
    },
    {
        "stop_code":"URBP2",
        "stop_name":"URB. PRELADA",
        "stop_lat":41.170861098,
        "stop_lon":-8.6376110457,
        "stop_url":"https://www.stcp.pt/api/stops/URBP2/realtime"
    },
    {
        "stop_code":"PREL4",
        "stop_name":"PRELADA",
        "stop_lat":41.1691849267,
        "stop_lon":-8.6365919719,
        "stop_url":"https://www.stcp.pt/api/stops/PREL4/realtime"
    },
    {
        "stop_code":"BRCP2",
        "stop_name":"BR. CAMPINAS",
        "stop_lat":41.168972988,
        "stop_lon":-8.6510529628,
        "stop_url":"https://www.stcp.pt/api/stops/BRCP2/realtime"
    },
    {
        "stop_code":"QTL2",
        "stop_name":"QUARTEL MILITAR",
        "stop_lat":41.1825019244,
        "stop_lon":-8.6381891184,
        "stop_url":"https://www.stcp.pt/api/stops/QTL2/realtime"
    },
    {
        "stop_code":"PNV2",
        "stop_name":"PAULO NOVAIS",
        "stop_lat":41.1631276979,
        "stop_lon":-8.6601057484,
        "stop_url":"https://www.stcp.pt/api/stops/PNV2/realtime"
    },
    {
        "stop_code":"RBSS2",
        "stop_name":"ROT. DO BESSA",
        "stop_lat":41.1645757705,
        "stop_lon":-8.6388621887,
        "stop_url":"https://www.stcp.pt/api/stops/RBSS2/realtime"
    },
    {
        "stop_code":"EZC2",
        "stop_name":"EZEQUIEL CAMPOS",
        "stop_lat":41.1744018456,
        "stop_lon":-8.65405515,
        "stop_url":"https://www.stcp.pt/api/stops/EZC2/realtime"
    },
    {
        "stop_code":"FTM1",
        "stop_name":"FONTE DA MOURA",
        "stop_lat":41.1645050754,
        "stop_lon":-8.6621442864,
        "stop_url":"https://www.stcp.pt/api/stops/FTM1/realtime"
    },
    {
        "stop_code":"PRO2",
        "stop_name":"PEREIRÓ",
        "stop_lat":41.1724829236,
        "stop_lon":-8.6556683136,
        "stop_url":"https://www.stcp.pt/api/stops/PRO2/realtime"
    },
    {
        "stop_code":"SDP1",
        "stop_name":"SIDÓNIO PAIS",
        "stop_lat":41.1645634959,
        "stop_lon":-8.6370035698,
        "stop_url":"https://www.stcp.pt/api/stops/SDP1/realtime"
    },
    {
        "stop_code":"MPAZ1",
        "stop_name":"MAN.P.AZEVEDO 1",
        "stop_lat":41.1723840876,
        "stop_lon":-8.6464116972,
        "stop_url":"https://www.stcp.pt/api/stops/MPAZ1/realtime"
    },
    {
        "stop_code":"RAEP2",
        "stop_name":"ROT. A.E.P.",
        "stop_lat":41.1783162166,
        "stop_lon":-8.6540430932,
        "stop_url":"https://www.stcp.pt/api/stops/RAEP2/realtime"
    },
    {
        "stop_code":"PREC1",
        "stop_name":"PRECIOSA",
        "stop_lat":41.1774842956,
        "stop_lon":-8.6568013425,
        "stop_url":"https://www.stcp.pt/api/stops/PREC1/realtime"
    },
    {
        "stop_code":"RSR1",
        "stop_name":"R. DO SENHOR",
        "stop_lat":41.1823572769,
        "stop_lon":-8.6464474337,
        "stop_url":"https://www.stcp.pt/api/stops/RSR1/realtime"
    },
    {
        "stop_code":"EFRD1",
        "stop_name":"ENG. FERREIRA DIAS",
        "stop_lat":41.1709096284,
        "stop_lon":-8.6446180804,
        "stop_url":"https://www.stcp.pt/api/stops/EFRD1/realtime"
    },
    {
        "stop_code":"MRS2",
        "stop_name":"MOREIRA SÁ",
        "stop_lat":41.1624135901,
        "stop_lon":-8.6329124544,
        "stop_url":"https://www.stcp.pt/api/stops/MRS2/realtime"
    },
    {
        "stop_code":"RSR2",
        "stop_name":"R. DO SENHOR",
        "stop_lat":41.1833351758,
        "stop_lon":-8.6452274778,
        "stop_url":"https://www.stcp.pt/api/stops/RSR2/realtime"
    },
    {
        "stop_code":"MTB1",
        "stop_name":"MTE BURGOS (CIRC.)",
        "stop_lat":41.1794186141,
        "stop_lon":-8.6287383648,
        "stop_url":"https://www.stcp.pt/api/stops/MTB1/realtime"
    },
    {
        "stop_code":"STLZ1",
        "stop_name":"STA. LUZIA",
        "stop_lat":41.1773683747,
        "stop_lon":-8.6247508995,
        "stop_url":"https://www.stcp.pt/api/stops/STLZ1/realtime"
    },
    {
        "stop_code":"CNG1",
        "stop_name":"CONGOSTAS",
        "stop_lat":41.1797475483,
        "stop_lon":-8.6338655466,
        "stop_url":"https://www.stcp.pt/api/stops/CNG1/realtime"
    },
    {
        "stop_code":"CSR2",
        "stop_name":"C. SAÚDE RAMALDE",
        "stop_lat":41.1694591956,
        "stop_lon":-8.6536482985,
        "stop_url":"https://www.stcp.pt/api/stops/CSR2/realtime"
    },
    {
        "stop_code":"ANTG2",
        "stop_name":"ANTUNES GUIMARÃES",
        "stop_lat":41.1704028827,
        "stop_lon":-8.6558208389,
        "stop_url":"https://www.stcp.pt/api/stops/ANTG2/realtime"
    },
    {
        "stop_code":"AV2",
        "stop_name":"ALTO DO VISO",
        "stop_lat":41.1842527642,
        "stop_lon":-8.6413610618,
        "stop_url":"https://www.stcp.pt/api/stops/AV2/realtime"
    },
    {
        "stop_code":"BRSE2",
        "stop_name":"BR. STO. EUGÉNIO",
        "stop_lat":41.1815013301,
        "stop_lon":-8.6363936805,
        "stop_url":"https://www.stcp.pt/api/stops/BRSE2/realtime"
    },
    {
        "stop_code":"URBP1",
        "stop_name":"URB. PRELADA",
        "stop_lat":41.1708889169,
        "stop_lon":-8.6372221927,
        "stop_url":"https://www.stcp.pt/api/stops/URBP1/realtime"
    },
    {
        "stop_code":"SDP2",
        "stop_name":"SIDÓNIO PAIS",
        "stop_lat":41.1644542469,
        "stop_lon":-8.6370919753,
        "stop_url":"https://www.stcp.pt/api/stops/SDP2/realtime"
    },
    {
        "stop_code":"LRD2",
        "stop_name":"LORDELO",
        "stop_lat":41.1541388653,
        "stop_lon":-8.6477221971,
        "stop_url":"https://www.stcp.pt/api/stops/LRD2/realtime"
    },
    {
        "stop_code":"PCL1",
        "stop_name":"PADRE LUIS CABRAL",
        "stop_lat":41.1518055811,
        "stop_lon":-8.668055548,
        "stop_url":"https://www.stcp.pt/api/stops/PCL1/realtime"
    },
    {
        "stop_code":"VIS",
        "stop_name":"VISO",
        "stop_lat":41.2319452253,
        "stop_lon":-8.62467618,
        "stop_url":"https://www.stcp.pt/api/stops/VIS/realtime"
    },
    {
        "stop_code":"RGDU1",
        "stop_name":"REGEDOURA",
        "stop_lat":41.2035555546,
        "stop_lon":-8.6650833294,
        "stop_url":"https://www.stcp.pt/api/stops/RGDU1/realtime"
    },
    {
        "stop_code":"CV2",
        "stop_name":"CARVALHA",
        "stop_lat":41.1646110523,
        "stop_lon":-8.5415277203,
        "stop_url":"https://www.stcp.pt/api/stops/CV2/realtime"
    },
    {
        "stop_code":"VDAM1",
        "stop_name":"VITORINO DAMASIO",
        "stop_lat":41.1692948423,
        "stop_lon":-8.5941434691,
        "stop_url":"https://www.stcp.pt/api/stops/VDAM1/realtime"
    },
    {
        "stop_code":"BS7",
        "stop_name":"BOAVISTA - B.SUCESSO",
        "stop_lat":41.1560838775,
        "stop_lon":-8.6285647539,
        "stop_url":"https://www.stcp.pt/api/stops/BS7/realtime"
    },
    {
        "stop_code":"ERM4",
        "stop_name":"ERMESINDE (FORUM)",
        "stop_lat":41.2158171432,
        "stop_lon":-8.5527952003,
        "stop_url":"https://www.stcp.pt/api/stops/ERM4/realtime"
    },
    {
        "stop_code":"BIC3",
        "stop_name":"BICALHO",
        "stop_lat":41.1483888917,
        "stop_lon":-8.6369999758,
        "stop_url":"https://www.stcp.pt/api/stops/BIC3/realtime"
    },
    {
        "stop_code":"PARR4",
        "stop_name":"PONTE ARRÁBIDA",
        "stop_lat":41.1485657665,
        "stop_lon":-8.6403904867,
        "stop_url":"https://www.stcp.pt/api/stops/PARR4/realtime"
    },
    {
        "stop_code":"FLU6",
        "stop_name":"FLUVIAL",
        "stop_lat":41.1484444326,
        "stop_lon":-8.6537499421,
        "stop_url":"https://www.stcp.pt/api/stops/FLU6/realtime"
    },
    {
        "stop_code":"DL5",
        "stop_name":"D.LEONOR",
        "stop_lat":41.1471944554,
        "stop_lon":-8.6602499371,
        "stop_url":"https://www.stcp.pt/api/stops/DL5/realtime"
    },
    {
        "stop_code":"DL6",
        "stop_name":"D.LEONOR",
        "stop_lat":41.1471388461,
        "stop_lon":-8.6602222123,
        "stop_url":"https://www.stcp.pt/api/stops/DL6/realtime"
    },
    {
        "stop_code":"PINM5",
        "stop_name":"PINHEIRO MANSO",
        "stop_lat":41.1622140738,
        "stop_lon":-8.6509863965,
        "stop_url":"https://www.stcp.pt/api/stops/PINM5/realtime"
    },
    {
        "stop_code":"PINM6",
        "stop_name":"PINHEIRO MANSO",
        "stop_lat":41.1623662521,
        "stop_lon":-8.6511048383,
        "stop_url":"https://www.stcp.pt/api/stops/PINM6/realtime"
    },
    {
        "stop_code":"SJB1",
        "stop_name":"S. JOÃO DE BRITO",
        "stop_lat":41.1664935264,
        "stop_lon":-8.6505853705,
        "stop_url":"https://www.stcp.pt/api/stops/SJB1/realtime"
    },
    {
        "stop_code":"SJB2",
        "stop_name":"S. JOÃO DE BRITO",
        "stop_lat":41.1663855704,
        "stop_lon":-8.6506042989,
        "stop_url":"https://www.stcp.pt/api/stops/SJB2/realtime"
    },
    {
        "stop_code":"FOR1",
        "stop_name":"FÓRUM",
        "stop_lat":41.2338876661,
        "stop_lon":-8.6239023436,
        "stop_url":"https://www.stcp.pt/api/stops/FOR1/realtime"
    },
    {
        "stop_code":"FOR2",
        "stop_name":"FÓRUM",
        "stop_lat":41.2337875023,
        "stop_lon":-8.6241640022,
        "stop_url":"https://www.stcp.pt/api/stops/FOR2/realtime"
    },
    {
        "stop_code":"RBHR1",
        "stop_name":"R.BOA HORA",
        "stop_lat":41.2119079486,
        "stop_lon":-8.6629326082,
        "stop_url":"https://www.stcp.pt/api/stops/RBHR1/realtime"
    },
    {
        "stop_code":"RBHR2",
        "stop_name":"R.BOA HORA",
        "stop_lat":41.211905001,
        "stop_lon":-8.6631422034,
        "stop_url":"https://www.stcp.pt/api/stops/RBHR2/realtime"
    },
    {
        "stop_code":"RPPC1",
        "stop_name":"R. PADRE PORTO CARRERO",
        "stop_lat":41.2124444218,
        "stop_lon":-8.6656388843,
        "stop_url":"https://www.stcp.pt/api/stops/RPPC1/realtime"
    },
    {
        "stop_code":"RPPC2",
        "stop_name":"R. PADRE PORTO CARRERO",
        "stop_lat":41.2124166129,
        "stop_lon":-8.6653055069,
        "stop_url":"https://www.stcp.pt/api/stops/RPPC2/realtime"
    },
    {
        "stop_code":"PREG1",
        "stop_name":"PESO DA RÉGUA",
        "stop_lat":41.1623076767,
        "stop_lon":-8.5695119798,
        "stop_url":"https://www.stcp.pt/api/stops/PREG1/realtime"
    },
    {
        "stop_code":"IGRL1",
        "stop_name":"IGREJA DE LEÇA",
        "stop_lat":41.1934218308,
        "stop_lon":-8.6989324177,
        "stop_url":"https://www.stcp.pt/api/stops/IGRL1/realtime"
    },
    {
        "stop_code":"PCVL1",
        "stop_name":"PERO COVILHÃ",
        "stop_lat":41.1967829493,
        "stop_lon":-8.7009879873,
        "stop_url":"https://www.stcp.pt/api/stops/PCVL1/realtime"
    },
    {
        "stop_code":"PCVL2",
        "stop_name":"PERO COVILHÃ",
        "stop_lat":41.1965884969,
        "stop_lon":-8.7010714187,
        "stop_url":"https://www.stcp.pt/api/stops/PCVL2/realtime"
    },
    {
        "stop_code":"SOLP1",
        "stop_name":"SOL POENTE",
        "stop_lat":41.1990222863,
        "stop_lon":-8.7022627044,
        "stop_url":"https://www.stcp.pt/api/stops/SOLP1/realtime"
    },
    {
        "stop_code":"BLM",
        "stop_name":"BOLHÃO (METRO)",
        "stop_lat":41.1496365189,
        "stop_lon":-8.6049330263,
        "stop_url":"https://www.stcp.pt/api/stops/BLM/realtime"
    },
    {
        "stop_code":"PNHL1",
        "stop_name":"PINHAL",
        "stop_lat":41.2307490031,
        "stop_lon":-8.5726802717,
        "stop_url":"https://www.stcp.pt/api/stops/PNHL1/realtime"
    },
    {
        "stop_code":"PNHL2",
        "stop_name":"PINHAL",
        "stop_lat":41.2308231688,
        "stop_lon":-8.5725700856,
        "stop_url":"https://www.stcp.pt/api/stops/PNHL2/realtime"
    },
    {
        "stop_code":"APRD2",
        "stop_name":"ARCO DO PRADO",
        "stop_lat":41.1270832933,
        "stop_lon":-8.6246944389,
        "stop_url":"https://www.stcp.pt/api/stops/APRD2/realtime"
    },
    {
        "stop_code":"PISA1",
        "stop_name":"PISÃO",
        "stop_lat":41.2225403099,
        "stop_lon":-8.5727169789,
        "stop_url":"https://www.stcp.pt/api/stops/PISA1/realtime"
    },
    {
        "stop_code":"PISA2",
        "stop_name":"PISÃO",
        "stop_lat":41.2226666671,
        "stop_lon":-8.5726388793,
        "stop_url":"https://www.stcp.pt/api/stops/PISA2/realtime"
    },
    {
        "stop_code":"PMAI1",
        "stop_name":"1º DE MAIO",
        "stop_lat":41.2105888219,
        "stop_lon":-8.5955935498,
        "stop_url":"https://www.stcp.pt/api/stops/PMAI1/realtime"
    },
    {
        "stop_code":"QULH2",
        "stop_name":"QUELHAS",
        "stop_lat":41.2189116077,
        "stop_lon":-8.5789127039,
        "stop_url":"https://www.stcp.pt/api/stops/QULH2/realtime"
    },
    {
        "stop_code":"RARR1",
        "stop_name":"ARROTEIA",
        "stop_lat":41.2192274526,
        "stop_lon":-8.5914089916,
        "stop_url":"https://www.stcp.pt/api/stops/RARR1/realtime"
    },
    {
        "stop_code":"RARR2",
        "stop_name":"ARROTEIA",
        "stop_lat":41.2189722363,
        "stop_lon":-8.591666694,
        "stop_url":"https://www.stcp.pt/api/stops/RARR2/realtime"
    },
    {
        "stop_code":"ARRV1",
        "stop_name":"ARREGADAS (VIADUTO)",
        "stop_lat":41.2199444225,
        "stop_lon":-8.5743333021,
        "stop_url":"https://www.stcp.pt/api/stops/ARRV1/realtime"
    },
    {
        "stop_code":"ARRV2",
        "stop_name":"ARREGADAS (VIADUTO)",
        "stop_lat":41.219972162,
        "stop_lon":-8.5744721792,
        "stop_url":"https://www.stcp.pt/api/stops/ARRV2/realtime"
    },
    {
        "stop_code":"VESS2",
        "stop_name":"VESSADA",
        "stop_lat":41.2157775431,
        "stop_lon":-8.593335926,
        "stop_url":"https://www.stcp.pt/api/stops/VESS2/realtime"
    },
    {
        "stop_code":"TESC2",
        "stop_name":"TV.ESCOLAS",
        "stop_lat":41.2166221297,
        "stop_lon":-8.5894782915,
        "stop_url":"https://www.stcp.pt/api/stops/TESC2/realtime"
    },
    {
        "stop_code":"VESS1",
        "stop_name":"VESSADA",
        "stop_lat":41.2158465346,
        "stop_lon":-8.5931062689,
        "stop_url":"https://www.stcp.pt/api/stops/VESS1/realtime"
    },
    {
        "stop_code":"TESC1",
        "stop_name":"TV.ESCOLAS",
        "stop_lat":41.2166729626,
        "stop_lon":-8.5896244837,
        "stop_url":"https://www.stcp.pt/api/stops/TESC1/realtime"
    },
    {
        "stop_code":"MAII1",
        "stop_name":"MAIA (IGREJA)",
        "stop_lat":41.2344485553,
        "stop_lon":-8.6303251524,
        "stop_url":"https://www.stcp.pt/api/stops/MAII1/realtime"
    },
    {
        "stop_code":"JQA2",
        "stop_name":"JOAQUIM ANDRADE",
        "stop_lat":41.2253309627,
        "stop_lon":-8.6880212434,
        "stop_url":"https://www.stcp.pt/api/stops/JQA2/realtime"
    },
    {
        "stop_code":"PFTT1",
        "stop_name":"PERAFITA",
        "stop_lat":41.2244826606,
        "stop_lon":-8.6989011834,
        "stop_url":"https://www.stcp.pt/api/stops/PFTT1/realtime"
    },
    {
        "stop_code":"GTN1",
        "stop_name":"GATANHAL",
        "stop_lat":41.2140643987,
        "stop_lon":-8.6795918175,
        "stop_url":"https://www.stcp.pt/api/stops/GTN1/realtime"
    },
    {
        "stop_code":"GTN2",
        "stop_name":"GATANHAL",
        "stop_lat":41.214922046,
        "stop_lon":-8.6795158587,
        "stop_url":"https://www.stcp.pt/api/stops/GTN2/realtime"
    },
    {
        "stop_code":"TTS2",
        "stop_name":"TV.TRÁS",
        "stop_lat":41.2199776444,
        "stop_lon":-8.6790159069,
        "stop_url":"https://www.stcp.pt/api/stops/TTS2/realtime"
    },
    {
        "stop_code":"BLD2",
        "stop_name":"BALDÕES",
        "stop_lat":41.2168387234,
        "stop_lon":-8.680015864,
        "stop_url":"https://www.stcp.pt/api/stops/BLD2/realtime"
    },
    {
        "stop_code":"LND1",
        "stop_name":"C. C. LONDRES",
        "stop_lat":41.1916111395,
        "stop_lon":-8.6530832954,
        "stop_url":"https://www.stcp.pt/api/stops/LND1/realtime"
    },
    {
        "stop_code":"QCM2",
        "stop_name":"QUATRO CAMINHOS",
        "stop_lat":41.1886666605,
        "stop_lon":-8.6514722672,
        "stop_url":"https://www.stcp.pt/api/stops/QCM2/realtime"
    },
    {
        "stop_code":"SETB1",
        "stop_name":"SETE BICAS",
        "stop_lat":41.1826939508,
        "stop_lon":-8.6485781042,
        "stop_url":"https://www.stcp.pt/api/stops/SETB1/realtime"
    },
    {
        "stop_code":"RSH",
        "stop_name":"SRA. DA HORA",
        "stop_lat":41.1453251863,
        "stop_lon":-8.5766770969,
        "stop_url":"https://www.stcp.pt/api/stops/RSH/realtime"
    },
    {
        "stop_code":"CIRC5",
        "stop_name":"CIRCUNVALAÇÃO",
        "stop_lat":41.1831146223,
        "stop_lon":-8.6464875676,
        "stop_url":"https://www.stcp.pt/api/stops/CIRC5/realtime"
    },
    {
        "stop_code":"CONT",
        "stop_name":"CONTINENTE",
        "stop_lat":41.1798387166,
        "stop_lon":-8.6569599363,
        "stop_url":"https://www.stcp.pt/api/stops/CONT/realtime"
    },
    {
        "stop_code":"PAP2",
        "stop_name":"PADRE ANTÓNIO PORTO",
        "stop_lat":41.1850277388,
        "stop_lon":-8.6536943783,
        "stop_url":"https://www.stcp.pt/api/stops/PAP2/realtime"
    },
    {
        "stop_code":"QCM1",
        "stop_name":"QUATRO CAMINHOS",
        "stop_lat":41.1887777412,
        "stop_lon":-8.6516388267,
        "stop_url":"https://www.stcp.pt/api/stops/QCM1/realtime"
    },
    {
        "stop_code":"RNSG2",
        "stop_name":"R.NOVA S. GENS",
        "stop_lat":41.1883428157,
        "stop_lon":-8.6472554657,
        "stop_url":"https://www.stcp.pt/api/stops/RNSG2/realtime"
    },
    {
        "stop_code":"QCM3",
        "stop_name":"QUATRO CAMINHOS",
        "stop_lat":41.1897063437,
        "stop_lon":-8.6516590433,
        "stop_url":"https://www.stcp.pt/api/stops/QCM3/realtime"
    },
    {
        "stop_code":"SRHE3",
        "stop_name":"SRA.HORA (METRO)",
        "stop_lat":41.1864722506,
        "stop_lon":-8.6549722508,
        "stop_url":"https://www.stcp.pt/api/stops/SRHE3/realtime"
    },
    {
        "stop_code":"ALMG2",
        "stop_name":"ALMEIRIGA",
        "stop_lat":41.2083544723,
        "stop_lon":-8.6964165413,
        "stop_url":"https://www.stcp.pt/api/stops/ALMG2/realtime"
    },
    {
        "stop_code":"PTM1",
        "stop_name":"PONTE DE MOREIRA",
        "stop_lat":41.2354443945,
        "stop_lon":-8.6450277834,
        "stop_url":"https://www.stcp.pt/api/stops/PTM1/realtime"
    },
    {
        "stop_code":"LFC",
        "stop_name":"LEÇA F.CLUBE",
        "stop_lat":41.2046389018,
        "stop_lon":-8.688666645,
        "stop_url":"https://www.stcp.pt/api/stops/LFC/realtime"
    },
    {
        "stop_code":"MGDE2",
        "stop_name":"MONTE GRANDE",
        "stop_lat":41.2298117882,
        "stop_lon":-8.6426733667,
        "stop_url":"https://www.stcp.pt/api/stops/MGDE2/realtime"
    },
    {
        "stop_code":"MNSO2",
        "stop_name":"MANSO",
        "stop_lat":41.2272777948,
        "stop_lon":-8.6408333019,
        "stop_url":"https://www.stcp.pt/api/stops/MNSO2/realtime"
    },
    {
        "stop_code":"MSB2",
        "stop_name":"MONTE S.BRÁS",
        "stop_lat":41.2187221953,
        "stop_lon":-8.6631111424,
        "stop_url":"https://www.stcp.pt/api/stops/MSB2/realtime"
    },
    {
        "stop_code":"RGDI3",
        "stop_name":"REGADIO",
        "stop_lat":41.1895067345,
        "stop_lon":-8.6822791867,
        "stop_url":"https://www.stcp.pt/api/stops/RGDI3/realtime"
    },
    {
        "stop_code":"FGTR1",
        "stop_name":"FOGUETEIROS",
        "stop_lat":41.1915959721,
        "stop_lon":-8.6378464993,
        "stop_url":"https://www.stcp.pt/api/stops/FGTR1/realtime"
    },
    {
        "stop_code":"RFER1",
        "stop_name":"R.FERROVIÁRIO",
        "stop_lat":41.2094722316,
        "stop_lon":-8.6615833484,
        "stop_url":"https://www.stcp.pt/api/stops/RFER1/realtime"
    },
    {
        "stop_code":"RGDU",
        "stop_name":"REGEDOURA",
        "stop_lat":41.2036944638,
        "stop_lon":-8.6651666011,
        "stop_url":"https://www.stcp.pt/api/stops/RGDU/realtime"
    },
    {
        "stop_code":"PSSM1",
        "stop_name":"PASSOS MANUEL",
        "stop_lat":41.1974589095,
        "stop_lon":-8.6639739481,
        "stop_url":"https://www.stcp.pt/api/stops/PSSM1/realtime"
    },
    {
        "stop_code":"PCRR2",
        "stop_name":"PONTE CARRO",
        "stop_lat":41.2068888704,
        "stop_lon":-8.6620277433,
        "stop_url":"https://www.stcp.pt/api/stops/PCRR2/realtime"
    },
    {
        "stop_code":"ABL2",
        "stop_name":"ABELHEIRA",
        "stop_lat":41.2061663339,
        "stop_lon":-8.6658762765,
        "stop_url":"https://www.stcp.pt/api/stops/ABL2/realtime"
    },
    {
        "stop_code":"ABL1",
        "stop_name":"ABELHEIRA",
        "stop_lat":41.2062222311,
        "stop_lon":-8.6656666531,
        "stop_url":"https://www.stcp.pt/api/stops/ABL1/realtime"
    },
    {
        "stop_code":"LMBG2",
        "stop_name":"LOMBA (GATÕES)",
        "stop_lat":41.2074443968,
        "stop_lon":-8.6603888916,
        "stop_url":"https://www.stcp.pt/api/stops/LMBG2/realtime"
    },
    {
        "stop_code":"LMB2",
        "stop_name":"LOMBA",
        "stop_lat":41.2066389027,
        "stop_lon":-8.6632221756,
        "stop_url":"https://www.stcp.pt/api/stops/LMB2/realtime"
    },
    {
        "stop_code":"GUIF1",
        "stop_name":"GUIFÕES",
        "stop_lat":41.1999999823,
        "stop_lon":-8.6656666453,
        "stop_url":"https://www.stcp.pt/api/stops/GUIF1/realtime"
    },
    {
        "stop_code":"FSCA2",
        "stop_name":"FRESCA",
        "stop_lat":41.1873507308,
        "stop_lon":-8.6993757615,
        "stop_url":"https://www.stcp.pt/api/stops/FSCA2/realtime"
    },
    {
        "stop_code":"QSTG1",
        "stop_name":"QUINTA DE SANTIAGO",
        "stop_lat":41.1916354844,
        "stop_lon":-8.6923292768,
        "stop_url":"https://www.stcp.pt/api/stops/QSTG1/realtime"
    },
    {
        "stop_code":"PMV2",
        "stop_name":"PONTE MOVEL",
        "stop_lat":41.1898662768,
        "stop_lon":-8.6955712526,
        "stop_url":"https://www.stcp.pt/api/stops/PMV2/realtime"
    },
    {
        "stop_code":"QSTG2",
        "stop_name":"QUINTA DE SANTIAGO",
        "stop_lat":41.1911806476,
        "stop_lon":-8.6927803828,
        "stop_url":"https://www.stcp.pt/api/stops/QSTG2/realtime"
    },
    {
        "stop_code":"HIPD",
        "stop_name":"HIPÓDROMO",
        "stop_lat":41.1975886229,
        "stop_lon":-8.683710179,
        "stop_url":"https://www.stcp.pt/api/stops/HIPD/realtime"
    },
    {
        "stop_code":"PMV1",
        "stop_name":"PONTE MOVEL",
        "stop_lat":41.1899496461,
        "stop_lon":-8.6958491014,
        "stop_url":"https://www.stcp.pt/api/stops/PMV1/realtime"
    },
    {
        "stop_code":"QTC2",
        "stop_name":"Q.TA DA CONCEICÃO",
        "stop_lat":41.194783046,
        "stop_lon":-8.6866823872,
        "stop_url":"https://www.stcp.pt/api/stops/QTC2/realtime"
    },
    {
        "stop_code":"APDL2",
        "stop_name":"APDL",
        "stop_lat":41.1879496373,
        "stop_lon":-8.7032656924,
        "stop_url":"https://www.stcp.pt/api/stops/APDL2/realtime"
    },
    {
        "stop_code":"FSCA1",
        "stop_name":"FRESCA",
        "stop_lat":41.1874342066,
        "stop_lon":-8.6994839941,
        "stop_url":"https://www.stcp.pt/api/stops/FSCA1/realtime"
    },
    {
        "stop_code":"STN2",
        "stop_name":"SANTANA",
        "stop_lat":41.2123399333,
        "stop_lon":-8.6133289995,
        "stop_url":"https://www.stcp.pt/api/stops/STN2/realtime"
    },
    {
        "stop_code":"PP1",
        "stop_name":"PONTE DA PEDRA",
        "stop_lat":41.2039309796,
        "stop_lon":-8.6143278547,
        "stop_url":"https://www.stcp.pt/api/stops/PP1/realtime"
    },
    {
        "stop_code":"CEMT1",
        "stop_name":"CEMITÉRIO",
        "stop_lat":41.2093931153,
        "stop_lon":-8.6258995731,
        "stop_url":"https://www.stcp.pt/api/stops/CEMT1/realtime"
    },
    {
        "stop_code":"CEMT2",
        "stop_name":"CEMITÉRIO",
        "stop_lat":41.2093889081,
        "stop_lon":-8.6261666229,
        "stop_url":"https://www.stcp.pt/api/stops/CEMT2/realtime"
    },
    {
        "stop_code":"PAUS2",
        "stop_name":"PAUS",
        "stop_lat":41.1959916661,
        "stop_lon":-8.6734804957,
        "stop_url":"https://www.stcp.pt/api/stops/PAUS2/realtime"
    },
    {
        "stop_code":"ACB1",
        "stop_name":"AREIAS CABEDELO",
        "stop_lat":41.1318661786,
        "stop_lon":-8.6632496619,
        "stop_url":"https://www.stcp.pt/api/stops/ACB1/realtime"
    },
    {
        "stop_code":"CCL",
        "stop_name":"CANCELINHAS",
        "stop_lat":41.1313908532,
        "stop_lon":-8.6517407683,
        "stop_url":"https://www.stcp.pt/api/stops/CCL/realtime"
    },
    {
        "stop_code":"QCMN2",
        "stop_name":"QUATRO CAMINHOS",
        "stop_lat":41.1282507644,
        "stop_lon":-8.6392425902,
        "stop_url":"https://www.stcp.pt/api/stops/QCMN2/realtime"
    },
    {
        "stop_code":"SCC1",
        "stop_name":"SPORT CLUBE CANIDELO",
        "stop_lat":41.130262041,
        "stop_lon":-8.6454845509,
        "stop_url":"https://www.stcp.pt/api/stops/SCC1/realtime"
    },
    {
        "stop_code":"ALUM1",
        "stop_name":"ALUMIARA",
        "stop_lat":41.1325818375,
        "stop_lon":-8.6524417454,
        "stop_url":"https://www.stcp.pt/api/stops/ALUM1/realtime"
    },
    {
        "stop_code":"QCMN1",
        "stop_name":"QUATRO CAMINHOS",
        "stop_lat":41.1281968841,
        "stop_lon":-8.6395161912,
        "stop_url":"https://www.stcp.pt/api/stops/QCMN1/realtime"
    },
    {
        "stop_code":"JMA",
        "stop_name":"JOSÉ MARIA ALVES",
        "stop_lat":41.1306997063,
        "stop_lon":-8.6517556774,
        "stop_url":"https://www.stcp.pt/api/stops/JMA/realtime"
    },
    {
        "stop_code":"FTS2",
        "stop_name":"FONTES",
        "stop_lat":41.1318745562,
        "stop_lon":-8.6574975751,
        "stop_url":"https://www.stcp.pt/api/stops/FTS2/realtime"
    },
    {
        "stop_code":"ACB2",
        "stop_name":"AREIAS CABEDELO",
        "stop_lat":41.1318147695,
        "stop_lon":-8.6629750971,
        "stop_url":"https://www.stcp.pt/api/stops/ACB2/realtime"
    },
    {
        "stop_code":"ESPH1",
        "stop_name":"ESPINHEIRO",
        "stop_lat":41.1294841367,
        "stop_lon":-8.6438510291,
        "stop_url":"https://www.stcp.pt/api/stops/ESPH1/realtime"
    },
    {
        "stop_code":"BGJ2",
        "stop_name":"BRAGA JÚNIOR",
        "stop_lat":41.130688173,
        "stop_lon":-8.6490565282,
        "stop_url":"https://www.stcp.pt/api/stops/BGJ2/realtime"
    },
    {
        "stop_code":"ELV1",
        "stop_name":"ESTAMPARIA LAVADORES",
        "stop_lat":41.1315314679,
        "stop_lon":-8.66553352,
        "stop_url":"https://www.stcp.pt/api/stops/ELV1/realtime"
    },
    {
        "stop_code":"ESPH2",
        "stop_name":"ESPINHEIRO",
        "stop_lat":41.1289528437,
        "stop_lon":-8.643109632,
        "stop_url":"https://www.stcp.pt/api/stops/ESPH2/realtime"
    },
    {
        "stop_code":"ELV2",
        "stop_name":"ESTAMPARIA LAVADORES",
        "stop_lat":41.1315426222,
        "stop_lon":-8.6650691531,
        "stop_url":"https://www.stcp.pt/api/stops/ELV2/realtime"
    },
    {
        "stop_code":"PIC2",
        "stop_name":"PICÃO",
        "stop_lat":41.1318582063,
        "stop_lon":-8.6591051893,
        "stop_url":"https://www.stcp.pt/api/stops/PIC2/realtime"
    },
    {
        "stop_code":"ALUM2",
        "stop_name":"ALUMIARA",
        "stop_lat":41.1314065129,
        "stop_lon":-8.6535154728,
        "stop_url":"https://www.stcp.pt/api/stops/ALUM2/realtime"
    },
    {
        "stop_code":"JGD2",
        "stop_name":"JORGE DIAS",
        "stop_lat":41.1311650192,
        "stop_lon":-8.6671776974,
        "stop_url":"https://www.stcp.pt/api/stops/JGD2/realtime"
    },
    {
        "stop_code":"LVP",
        "stop_name":"LAVADORES (PRAIA)",
        "stop_lat":41.1310902898,
        "stop_lon":-8.6694003959,
        "stop_url":"https://www.stcp.pt/api/stops/LVP/realtime"
    },
    {
        "stop_code":"AEC1",
        "stop_name":"ALAM.EMPRESA",
        "stop_lat":41.1362691328,
        "stop_lon":-8.6280479633,
        "stop_url":"https://www.stcp.pt/api/stops/AEC1/realtime"
    },
    {
        "stop_code":"INFH2",
        "stop_name":"INFANTE D.HENRIQUE",
        "stop_lat":41.1203610747,
        "stop_lon":-8.6153333589,
        "stop_url":"https://www.stcp.pt/api/stops/INFH2/realtime"
    },
    {
        "stop_code":"JA2",
        "stop_name":"JARDINS DA ARRÁBIDA",
        "stop_lat":41.139028856,
        "stop_lon":-8.6389467588,
        "stop_url":"https://www.stcp.pt/api/stops/JA2/realtime"
    },
    {
        "stop_code":"IPO2",
        "stop_name":"INST. ONCOLOGIA",
        "stop_lat":41.1834428841,
        "stop_lon":-8.6037248801,
        "stop_url":"https://www.stcp.pt/api/stops/IPO2/realtime"
    },
    {
        "stop_code":"CONS2",
        "stop_name":"CONSTITUIÇÃO",
        "stop_lat":41.1633333556,
        "stop_lon":-8.6089722452,
        "stop_url":"https://www.stcp.pt/api/stops/CONS2/realtime"
    },
    {
        "stop_code":"BRCV",
        "stop_name":"BR.CARVALHIDO",
        "stop_lat":41.169079452,
        "stop_lon":-8.6229763386,
        "stop_url":"https://www.stcp.pt/api/stops/BRCV/realtime"
    },
    {
        "stop_code":"BVLH3",
        "stop_name":"BICA VELHA",
        "stop_lat":41.1674496127,
        "stop_lon":-8.6212369934,
        "stop_url":"https://www.stcp.pt/api/stops/BVLH3/realtime"
    },
    {
        "stop_code":"ARS8",
        "stop_name":"AREOSA",
        "stop_lat":41.1806944709,
        "stop_lon":-8.5828332625,
        "stop_url":"https://www.stcp.pt/api/stops/ARS8/realtime"
    },
    {
        "stop_code":"AA1",
        "stop_name":"ALTO DA AREOSA",
        "stop_lat":41.1788015512,
        "stop_lon":-8.5839945346,
        "stop_url":"https://www.stcp.pt/api/stops/AA1/realtime"
    },
    {
        "stop_code":"ASPL1",
        "stop_name":"ASPRELA",
        "stop_lat":41.1847299476,
        "stop_lon":-8.6045155151,
        "stop_url":"https://www.stcp.pt/api/stops/ASPL1/realtime"
    },
    {
        "stop_code":"CI32",
        "stop_name":"CINTURA INTERNA",
        "stop_lat":41.1736295865,
        "stop_lon":-8.6132223393,
        "stop_url":"https://www.stcp.pt/api/stops/CI32/realtime"
    },
    {
        "stop_code":"BJ1",
        "stop_name":"BENTO JÚNIOR",
        "stop_lat":41.1653888553,
        "stop_lon":-8.6038333078,
        "stop_url":"https://www.stcp.pt/api/stops/BJ1/realtime"
    },
    {
        "stop_code":"GC11",
        "stop_name":"GOMES COSTA 1",
        "stop_lat":41.1616719212,
        "stop_lon":-8.6569875622,
        "stop_url":"https://www.stcp.pt/api/stops/GC11/realtime"
    },
    {
        "stop_code":"PGM2",
        "stop_name":"PAULO DA GAMA",
        "stop_lat":41.1480583932,
        "stop_lon":-8.6581104216,
        "stop_url":"https://www.stcp.pt/api/stops/PGM2/realtime"
    },
    {
        "stop_code":"LRD1",
        "stop_name":"LORDELO",
        "stop_lat":41.154388913,
        "stop_lon":-8.6490277103,
        "stop_url":"https://www.stcp.pt/api/stops/LRD1/realtime"
    },
    {
        "stop_code":"PFOZ2",
        "stop_name":"PINHAIS DA FOZ",
        "stop_lat":41.1551445196,
        "stop_lon":-8.6632600759,
        "stop_url":"https://www.stcp.pt/api/stops/PFOZ2/realtime"
    },
    {
        "stop_code":"PFOZ1",
        "stop_name":"PINHAIS DA FOZ",
        "stop_lat":41.1552499643,
        "stop_lon":-8.6630832978,
        "stop_url":"https://www.stcp.pt/api/stops/PFOZ1/realtime"
    },
    {
        "stop_code":"LGO4",
        "stop_name":"LICEU GARCIA ORTA",
        "stop_lat":41.1615277399,
        "stop_lon":-8.6667778205,
        "stop_url":"https://www.stcp.pt/api/stops/LGO4/realtime"
    },
    {
        "stop_code":"MF1",
        "stop_name":"MARTIM FREITAS",
        "stop_lat":41.174164875,
        "stop_lon":-8.6625032891,
        "stop_url":"https://www.stcp.pt/api/stops/MF1/realtime"
    },
    {
        "stop_code":"PRCD3",
        "stop_name":"PARQUE DA CIDADE",
        "stop_lat":41.1651064834,
        "stop_lon":-8.671217701,
        "stop_url":"https://www.stcp.pt/api/stops/PRCD3/realtime"
    },
    {
        "stop_code":"LDD9",
        "stop_name":"LIDADOR /HOSPITAL",
        "stop_lat":41.1779258486,
        "stop_lon":-8.662620637,
        "stop_url":"https://www.stcp.pt/api/stops/LDD9/realtime"
    },
    {
        "stop_code":"NVT",
        "stop_name":"NAVAS TOLOSA",
        "stop_lat":41.168242248,
        "stop_lon":-8.5713447939,
        "stop_url":"https://www.stcp.pt/api/stops/NVT/realtime"
    },
    {
        "stop_code":"CRJ2",
        "stop_name":"CORUJEIRA",
        "stop_lat":41.159419328,
        "stop_lon":-8.5808040168,
        "stop_url":"https://www.stcp.pt/api/stops/CRJ2/realtime"
    },
    {
        "stop_code":"CNTM2",
        "stop_name":"CONTUMIL (METRO)",
        "stop_lat":41.1659916734,
        "stop_lon":-8.5785683748,
        "stop_url":"https://www.stcp.pt/api/stops/CNTM2/realtime"
    },
    {
        "stop_code":"ARNH2",
        "stop_name":"AREINHO",
        "stop_lat":41.1443389163,
        "stop_lon":-8.578709324,
        "stop_url":"https://www.stcp.pt/api/stops/ARNH2/realtime"
    },
    {
        "stop_code":"PQN2",
        "stop_name":"PARQUE NASCENTE",
        "stop_lat":41.174372827,
        "stop_lon":-8.5672803745,
        "stop_url":"https://www.stcp.pt/api/stops/PQN2/realtime"
    },
    {
        "stop_code":"PQN1",
        "stop_name":"PARQUE NASCENTE",
        "stop_lat":41.1746423167,
        "stop_lon":-8.5674489966,
        "stop_url":"https://www.stcp.pt/api/stops/PQN1/realtime"
    },
    {
        "stop_code":"BCP1",
        "stop_name":"BR.CERCO PORTO",
        "stop_lat":41.1572710624,
        "stop_lon":-8.5704560116,
        "stop_url":"https://www.stcp.pt/api/stops/BCP1/realtime"
    },
    {
        "stop_code":"JAE1",
        "stop_name":"J.A.E.",
        "stop_lat":41.1438111432,
        "stop_lon":-8.5822093613,
        "stop_url":"https://www.stcp.pt/api/stops/JAE1/realtime"
    },
    {
        "stop_code":"JAE2",
        "stop_name":"J.A.E.",
        "stop_lat":41.1436722141,
        "stop_lon":-8.5827370379,
        "stop_url":"https://www.stcp.pt/api/stops/JAE2/realtime"
    },
    {
        "stop_code":"EDP1",
        "stop_name":"EDP",
        "stop_lat":41.1454126488,
        "stop_lon":-8.5796675224,
        "stop_url":"https://www.stcp.pt/api/stops/EDP1/realtime"
    },
    {
        "stop_code":"RNH1",
        "stop_name":"RANHA",
        "stop_lat":41.1768660832,
        "stop_lon":-8.5675233134,
        "stop_url":"https://www.stcp.pt/api/stops/RNH1/realtime"
    },
    {
        "stop_code":"RNH2",
        "stop_name":"RANHA",
        "stop_lat":41.1775450865,
        "stop_lon":-8.568024653,
        "stop_url":"https://www.stcp.pt/api/stops/RNH2/realtime"
    },
    {
        "stop_code":"SP3",
        "stop_name":"S. PEDRO",
        "stop_lat":41.1469394394,
        "stop_lon":-8.5733152497,
        "stop_url":"https://www.stcp.pt/api/stops/SP3/realtime"
    },
    {
        "stop_code":"TRH1",
        "stop_name":"TORRINHA",
        "stop_lat":41.1532766433,
        "stop_lon":-8.6209403854,
        "stop_url":"https://www.stcp.pt/api/stops/TRH1/realtime"
    },
    {
        "stop_code":"TRH2",
        "stop_name":"TORRINHA",
        "stop_lat":41.1531670194,
        "stop_lon":-8.6210563189,
        "stop_url":"https://www.stcp.pt/api/stops/TRH2/realtime"
    },
    {
        "stop_code":"BVBR2",
        "stop_name":"BOAVISTA BRASÍLIA",
        "stop_lat":41.1575866387,
        "stop_lon":-8.6266722585,
        "stop_url":"https://www.stcp.pt/api/stops/BVBR2/realtime"
    },
    {
        "stop_code":"RA2",
        "stop_name":"RAMADA ALTA",
        "stop_lat":41.160803057,
        "stop_lon":-8.6212107876,
        "stop_url":"https://www.stcp.pt/api/stops/RA2/realtime"
    },
    {
        "stop_code":"CDF1",
        "stop_name":"CEDOFEITA",
        "stop_lat":41.1550928993,
        "stop_lon":-8.6186430344,
        "stop_url":"https://www.stcp.pt/api/stops/CDF1/realtime"
    },
    {
        "stop_code":"CDF2",
        "stop_name":"CEDOFEITA",
        "stop_lat":41.1545297311,
        "stop_lon":-8.6189297923,
        "stop_url":"https://www.stcp.pt/api/stops/CDF2/realtime"
    },
    {
        "stop_code":"LAPA2",
        "stop_name":"LAPA",
        "stop_lat":41.1568743762,
        "stop_lon":-8.6130314891,
        "stop_url":"https://www.stcp.pt/api/stops/LAPA2/realtime"
    },
    {
        "stop_code":"PRR7",
        "stop_name":"PR. DA REPÚBLICA",
        "stop_lat":41.1542209175,
        "stop_lon":-8.6139341759,
        "stop_url":"https://www.stcp.pt/api/stops/PRR7/realtime"
    },
    {
        "stop_code":"BCM3",
        "stop_name":"BOAVISTA-CASA DA MÚSICA",
        "stop_lat":41.159457541,
        "stop_lon":-8.6286185761,
        "stop_url":"https://www.stcp.pt/api/stops/BCM3/realtime"
    },
    {
        "stop_code":"MATR2",
        "stop_name":"MATERNIDADE",
        "stop_lat":41.1505197619,
        "stop_lon":-8.6219678515,
        "stop_url":"https://www.stcp.pt/api/stops/MATR2/realtime"
    },
    {
        "stop_code":"MGB2",
        "stop_name":"MIGUEL BOMBARDA",
        "stop_lat":41.1500277285,
        "stop_lon":-8.6230554934,
        "stop_url":"https://www.stcp.pt/api/stops/MGB2/realtime"
    },
    {
        "stop_code":"CRT1",
        "stop_name":"CARTES",
        "stop_lat":41.1628793114,
        "stop_lon":-8.5750353389,
        "stop_url":"https://www.stcp.pt/api/stops/CRT1/realtime"
    },
    {
        "stop_code":"E109",
        "stop_name":"ESTR.NACIONAL 109",
        "stop_lat":41.0948563734,
        "stop_lon":-8.6294218908,
        "stop_url":"https://www.stcp.pt/api/stops/E109/realtime"
    },
    {
        "stop_code":"LPDZ",
        "stop_name":"L.GO 1º DEZEMBRO",
        "stop_lat":41.1431246762,
        "stop_lon":-8.6090250418,
        "stop_url":"https://www.stcp.pt/api/stops/LPDZ/realtime"
    },
    {
        "stop_code":"BTLH6",
        "stop_name":"BATALHA",
        "stop_lat":41.1450492394,
        "stop_lon":-8.6043746392,
        "stop_url":"https://www.stcp.pt/api/stops/BTLH6/realtime"
    },
    {
        "stop_code":"BL4",
        "stop_name":"BARROS LIMA",
        "stop_lat":41.1547533527,
        "stop_lon":-8.5955036752,
        "stop_url":"https://www.stcp.pt/api/stops/BL4/realtime"
    },
    {
        "stop_code":"C24A3",
        "stop_name":"CAMPO 24 DE AGOSTO",
        "stop_lat":41.1486110729,
        "stop_lon":-8.5987846457,
        "stop_url":"https://www.stcp.pt/api/stops/C24A3/realtime"
    },
    {
        "stop_code":"ST3",
        "stop_name":"S. TOMÉ",
        "stop_lat":41.1838044115,
        "stop_lon":-8.6094037269,
        "stop_url":"https://www.stcp.pt/api/stops/ST3/realtime"
    },
    {
        "stop_code":"ST4",
        "stop_name":"S. TOMÉ",
        "stop_lat":41.1839868224,
        "stop_lon":-8.6095809715,
        "stop_url":"https://www.stcp.pt/api/stops/ST4/realtime"
    },
    {
        "stop_code":"SRHR",
        "stop_name":"SRA. HORA",
        "stop_lat":41.1865555215,
        "stop_lon":-8.655055513,
        "stop_url":"https://www.stcp.pt/api/stops/SRHR/realtime"
    },
    {
        "stop_code":"QBV1",
        "stop_name":"QUINTA BELA VISTA",
        "stop_lat":41.1188810452,
        "stop_lon":-8.6349748087,
        "stop_url":"https://www.stcp.pt/api/stops/QBV1/realtime"
    },
    {
        "stop_code":"QBV2",
        "stop_name":"QUINTA BELA VISTA",
        "stop_lat":41.1188135649,
        "stop_lon":-8.6346947202,
        "stop_url":"https://www.stcp.pt/api/stops/QBV2/realtime"
    },
    {
        "stop_code":"PCAR1",
        "stop_name":"PRACETA AREIAS",
        "stop_lat":41.1600555771,
        "stop_lon":-8.555333345,
        "stop_url":"https://www.stcp.pt/api/stops/PCAR1/realtime"
    },
    {
        "stop_code":"PCAR2",
        "stop_name":"PRACETA AREIAS",
        "stop_lat":41.1602667436,
        "stop_lon":-8.5552063861,
        "stop_url":"https://www.stcp.pt/api/stops/PCAR2/realtime"
    },
    {
        "stop_code":"ROSA1",
        "stop_name":"ROSÁRIO",
        "stop_lat":41.1114444498,
        "stop_lon":-8.6027222438,
        "stop_url":"https://www.stcp.pt/api/stops/ROSA1/realtime"
    },
    {
        "stop_code":"GSHP1",
        "stop_name":"GAIASHOPPING",
        "stop_lat":41.1183055125,
        "stop_lon":-8.6222500469,
        "stop_url":"https://www.stcp.pt/api/stops/GSHP1/realtime"
    },
    {
        "stop_code":"GSHP2",
        "stop_name":"GAIASHOPPING",
        "stop_lat":41.1188055788,
        "stop_lon":-8.6221944722,
        "stop_url":"https://www.stcp.pt/api/stops/GSHP2/realtime"
    },
    {
        "stop_code":"RMT1",
        "stop_name":"R. DAS MATAS",
        "stop_lat":41.1210433006,
        "stop_lon":-8.6335593507,
        "stop_url":"https://www.stcp.pt/api/stops/RMT1/realtime"
    },
    {
        "stop_code":"RSMT2",
        "stop_name":"R. SR MATOSINHOS",
        "stop_lat":41.1177777961,
        "stop_lon":-8.6280277667,
        "stop_url":"https://www.stcp.pt/api/stops/RSMT2/realtime"
    },
    {
        "stop_code":"MJP2",
        "stop_name":"MAJOR PÁLA",
        "stop_lat":41.1306388706,
        "stop_lon":-8.6310833102,
        "stop_url":"https://www.stcp.pt/api/stops/MJP2/realtime"
    },
    {
        "stop_code":"GDR1",
        "stop_name":"GANDARA",
        "stop_lat":41.1160731103,
        "stop_lon":-8.6344447305,
        "stop_url":"https://www.stcp.pt/api/stops/GDR1/realtime"
    },
    {
        "stop_code":"LGDM2",
        "stop_name":"L. DOMINGOS MATOS",
        "stop_lat":41.1224166214,
        "stop_lon":-8.6326111337,
        "stop_url":"https://www.stcp.pt/api/stops/LGDM2/realtime"
    },
    {
        "stop_code":"CHAS1",
        "stop_name":"CHÃS",
        "stop_lat":41.1438510011,
        "stop_lon":-8.6419266089,
        "stop_url":"https://www.stcp.pt/api/stops/CHAS1/realtime"
    },
    {
        "stop_code":"DISP1",
        "stop_name":"DISPENSÁRIO",
        "stop_lat":41.1291471682,
        "stop_lon":-8.6135811633,
        "stop_url":"https://www.stcp.pt/api/stops/DISP1/realtime"
    },
    {
        "stop_code":"DV2",
        "stop_name":"DEVESAS",
        "stop_lat":41.125826871,
        "stop_lon":-8.6180089796,
        "stop_url":"https://www.stcp.pt/api/stops/DV2/realtime"
    },
    {
        "stop_code":"DVE1",
        "stop_name":"DEVESAS (ESTAÇÃO)",
        "stop_lat":41.1290555421,
        "stop_lon":-8.619777793,
        "stop_url":"https://www.stcp.pt/api/stops/DVE1/realtime"
    },
    {
        "stop_code":"EC",
        "stop_name":"ELECTROCERÂMICA",
        "stop_lat":41.1366110666,
        "stop_lon":-8.6296666194,
        "stop_url":"https://www.stcp.pt/api/stops/EC/realtime"
    },
    {
        "stop_code":"RMT2",
        "stop_name":"R. DAS MATAS",
        "stop_lat":41.1207758994,
        "stop_lon":-8.6333463186,
        "stop_url":"https://www.stcp.pt/api/stops/RMT2/realtime"
    },
    {
        "stop_code":"JMRR2",
        "stop_name":"JARDIM DO MORRO",
        "stop_lat":41.1359434993,
        "stop_lon":-8.6080203261,
        "stop_url":"https://www.stcp.pt/api/stops/JMRR2/realtime"
    },
    {
        "stop_code":"PMEL1",
        "stop_name":"PEREIRA MELO",
        "stop_lat":41.0945100101,
        "stop_lon":-8.6539787283,
        "stop_url":"https://www.stcp.pt/api/stops/PMEL1/realtime"
    },
    {
        "stop_code":"NTRT2",
        "stop_name":"NUNO TRISTÃO",
        "stop_lat":41.0919380691,
        "stop_lon":-8.6534280142,
        "stop_url":"https://www.stcp.pt/api/stops/NTRT2/realtime"
    },
    {
        "stop_code":"ISNT1",
        "stop_name":"INFANTE SANTO",
        "stop_lat":41.0889785874,
        "stop_lon":-8.6535515961,
        "stop_url":"https://www.stcp.pt/api/stops/ISNT1/realtime"
    },
    {
        "stop_code":"ISNT2",
        "stop_name":"INFANTE SANTO",
        "stop_lat":41.0886276915,
        "stop_lon":-8.6534313539,
        "stop_url":"https://www.stcp.pt/api/stops/ISNT2/realtime"
    },
    {
        "stop_code":"VGM1",
        "stop_name":"VASCO GAMA",
        "stop_lat":41.0862661653,
        "stop_lon":-8.6526043676,
        "stop_url":"https://www.stcp.pt/api/stops/VGM1/realtime"
    },
    {
        "stop_code":"VGM2",
        "stop_name":"VASCO GAMA",
        "stop_lat":41.0861775795,
        "stop_lon":-8.652600574,
        "stop_url":"https://www.stcp.pt/api/stops/VGM2/realtime"
    },
    {
        "stop_code":"ACBL2",
        "stop_name":"ÁLVARES CABRAL",
        "stop_lat":41.0857232165,
        "stop_lon":-8.655621241,
        "stop_url":"https://www.stcp.pt/api/stops/ACBL2/realtime"
    },
    {
        "stop_code":"ISG1",
        "stop_name":"INFANTE SAGRES",
        "stop_lat":41.083876891,
        "stop_lon":-8.6555574337,
        "stop_url":"https://www.stcp.pt/api/stops/ISG1/realtime"
    },
    {
        "stop_code":"ISG2",
        "stop_name":"INFANTE SAGRES",
        "stop_lat":41.0837291368,
        "stop_lon":-8.6553377672,
        "stop_url":"https://www.stcp.pt/api/stops/ISG2/realtime"
    },
    {
        "stop_code":"RNF1",
        "stop_name":"R.NOVA DA FONTE",
        "stop_lat":41.220391481,
        "stop_lon":-8.5462802823,
        "stop_url":"https://www.stcp.pt/api/stops/RNF1/realtime"
    },
    {
        "stop_code":"RNF2",
        "stop_name":"R.NOVA DA FONTE",
        "stop_lat":41.2207489611,
        "stop_lon":-8.5465514554,
        "stop_url":"https://www.stcp.pt/api/stops/RNF2/realtime"
    },
    {
        "stop_code":"BOVT1",
        "stop_name":"BOAVISTA",
        "stop_lat":41.2297733487,
        "stop_lon":-8.5484332961,
        "stop_url":"https://www.stcp.pt/api/stops/BOVT1/realtime"
    },
    {
        "stop_code":"VLR1",
        "stop_name":"VILAR",
        "stop_lat":41.23222888,
        "stop_lon":-8.5445296427,
        "stop_url":"https://www.stcp.pt/api/stops/VLR1/realtime"
    },
    {
        "stop_code":"AHRQ1",
        "stop_name":"D.AFONSO HENRIQUES",
        "stop_lat":41.2357313065,
        "stop_lon":-8.5365907461,
        "stop_url":"https://www.stcp.pt/api/stops/AHRQ1/realtime"
    },
    {
        "stop_code":"PJGL1",
        "stop_name":"PARQUE J. G. LARANJO",
        "stop_lat":41.1847777341,
        "stop_lon":-8.6618888356,
        "stop_url":"https://www.stcp.pt/api/stops/PJGL1/realtime"
    },
    {
        "stop_code":"PJGL2",
        "stop_name":"PARQUE J. G. LARANJO",
        "stop_lat":41.1844444503,
        "stop_lon":-8.6619166605,
        "stop_url":"https://www.stcp.pt/api/stops/PJGL2/realtime"
    },
    {
        "stop_code":"BPTL1",
        "stop_name":"BR. DA PASTELEIRA",
        "stop_lat":41.1550733612,
        "stop_lon":-8.6581854565,
        "stop_url":"https://www.stcp.pt/api/stops/BPTL1/realtime"
    },
    {
        "stop_code":"RCTL1",
        "stop_name":"R.CRISTAL",
        "stop_lat":41.2247854711,
        "stop_lon":-8.5699634151,
        "stop_url":"https://www.stcp.pt/api/stops/RCTL1/realtime"
    },
    {
        "stop_code":"RCTL2",
        "stop_name":"R.CRISTAL",
        "stop_lat":41.2248332928,
        "stop_lon":-8.5700555651,
        "stop_url":"https://www.stcp.pt/api/stops/RCTL2/realtime"
    },
    {
        "stop_code":"BPTL2",
        "stop_name":"BR. DA PASTELEIRA",
        "stop_lat":41.1548942924,
        "stop_lon":-8.6581995118,
        "stop_url":"https://www.stcp.pt/api/stops/BPTL2/realtime"
    },
    {
        "stop_code":"FRX4",
        "stop_name":"FREIXO",
        "stop_lat":41.1465229754,
        "stop_lon":-8.5796190894,
        "stop_url":"https://www.stcp.pt/api/stops/FRX4/realtime"
    },
    {
        "stop_code":"IGRT2",
        "stop_name":"IGREJA RIO TINTO",
        "stop_lat":41.177380893,
        "stop_lon":-8.5598995341,
        "stop_url":"https://www.stcp.pt/api/stops/IGRT2/realtime"
    },
    {
        "stop_code":"FOCO2",
        "stop_name":"FOCO",
        "stop_lat":41.1608629504,
        "stop_lon":-8.6473249035,
        "stop_url":"https://www.stcp.pt/api/stops/FOCO2/realtime"
    },
    {
        "stop_code":"CNT3",
        "stop_name":"CANTAREIRA",
        "stop_lat":41.1481111383,
        "stop_lon":-8.6652221644,
        "stop_url":"https://www.stcp.pt/api/stops/CNT3/realtime"
    },
    {
        "stop_code":"INF1",
        "stop_name":"INFANTE",
        "stop_lat":41.140583304,
        "stop_lon":-8.6163610726,
        "stop_url":"https://www.stcp.pt/api/stops/INF1/realtime"
    },
    {
        "stop_code":"CLVR1",
        "stop_name":"CALVÁRIO",
        "stop_lat":41.1941666737,
        "stop_lon":-8.5000555854,
        "stop_url":"https://www.stcp.pt/api/stops/CLVR1/realtime"
    },
    {
        "stop_code":"CLVR2",
        "stop_name":"CALVÁRIO",
        "stop_lat":41.1931363846,
        "stop_lon":-8.4993870418,
        "stop_url":"https://www.stcp.pt/api/stops/CLVR2/realtime"
    },
    {
        "stop_code":"SR1",
        "stop_name":"S. ROQUE",
        "stop_lat":41.1661086307,
        "stop_lon":-8.5695155797,
        "stop_url":"https://www.stcp.pt/api/stops/SR1/realtime"
    },
    {
        "stop_code":"SR3",
        "stop_name":"S. ROQUE",
        "stop_lat":41.1666944176,
        "stop_lon":-8.5680277697,
        "stop_url":"https://www.stcp.pt/api/stops/SR3/realtime"
    },
    {
        "stop_code":"SR5",
        "stop_name":"S. ROQUE (CIRCUNV.)",
        "stop_lat":41.1676670652,
        "stop_lon":-8.569023343,
        "stop_url":"https://www.stcp.pt/api/stops/SR5/realtime"
    },
    {
        "stop_code":"MDL2",
        "stop_name":"MADALENA (ESCOLAS)",
        "stop_lat":41.1125585569,
        "stop_lon":-8.6438900139,
        "stop_url":"https://www.stcp.pt/api/stops/MDL2/realtime"
    },
    {
        "stop_code":"CCRN1",
        "stop_name":"CRISTOVÃO CERNACHE",
        "stop_lat":41.2077777828,
        "stop_lon":-8.6226944485,
        "stop_url":"https://www.stcp.pt/api/stops/CCRN1/realtime"
    },
    {
        "stop_code":"CCRN2",
        "stop_name":"CRISTOVÃO CERNACHE",
        "stop_lat":41.2076342653,
        "stop_lon":-8.622692303,
        "stop_url":"https://www.stcp.pt/api/stops/CCRN2/realtime"
    },
    {
        "stop_code":"PBSS4",
        "stop_name":"PINTO BESSA",
        "stop_lat":41.1495554959,
        "stop_lon":-8.5885277079,
        "stop_url":"https://www.stcp.pt/api/stops/PBSS4/realtime"
    },
    {
        "stop_code":"A25A1",
        "stop_name":"AV. 25 DE ABRIL",
        "stop_lat":41.1555277897,
        "stop_lon":-8.5860832738,
        "stop_url":"https://www.stcp.pt/api/stops/A25A1/realtime"
    },
    {
        "stop_code":"FALC",
        "stop_name":"FALCÃO",
        "stop_lat":41.1602778012,
        "stop_lon":-8.5752222671,
        "stop_url":"https://www.stcp.pt/api/stops/FALC/realtime"
    },
    {
        "stop_code":"CRT2",
        "stop_name":"CARTES",
        "stop_lat":41.1613611137,
        "stop_lon":-8.5729444697,
        "stop_url":"https://www.stcp.pt/api/stops/CRT2/realtime"
    },
    {
        "stop_code":"PSG1",
        "stop_name":"PEDRAS SALGADAS",
        "stop_lat":41.1590554973,
        "stop_lon":-8.569777718,
        "stop_url":"https://www.stcp.pt/api/stops/PSG1/realtime"
    },
    {
        "stop_code":"CPTO1",
        "stop_name":"CERCO DO PORTO",
        "stop_lat":41.1604048354,
        "stop_lon":-8.5702856738,
        "stop_url":"https://www.stcp.pt/api/stops/CPTO1/realtime"
    },
    {
        "stop_code":"SR6",
        "stop_name":"S. ROQUE",
        "stop_lat":41.1670036752,
        "stop_lon":-8.5667280405,
        "stop_url":"https://www.stcp.pt/api/stops/SR6/realtime"
    },
    {
        "stop_code":"IGRA1",
        "stop_name":"IGREJA DE ALFENA",
        "stop_lat":41.2366690524,
        "stop_lon":-8.5258253168,
        "stop_url":"https://www.stcp.pt/api/stops/IGRA1/realtime"
    },
    {
        "stop_code":"IGRA2",
        "stop_name":"IGREJA DE ALFENA",
        "stop_lat":41.2366899598,
        "stop_lon":-8.5259780047,
        "stop_url":"https://www.stcp.pt/api/stops/IGRA2/realtime"
    },
    {
        "stop_code":"ALFN1",
        "stop_name":"ALFENA",
        "stop_lat":41.2407393089,
        "stop_lon":-8.5253977658,
        "stop_url":"https://www.stcp.pt/api/stops/ALFN1/realtime"
    },
    {
        "stop_code":"ALFN2",
        "stop_name":"ALFENA",
        "stop_lat":41.2410342628,
        "stop_lon":-8.526666877,
        "stop_url":"https://www.stcp.pt/api/stops/ALFN2/realtime"
    },
    {
        "stop_code":"ALFN3",
        "stop_name":"ALFENA",
        "stop_lat":41.2407057376,
        "stop_lon":-8.527626973,
        "stop_url":"https://www.stcp.pt/api/stops/ALFN3/realtime"
    },
    {
        "stop_code":"EDRG1",
        "stop_name":"ESTÁDIO DO DRAGÃO",
        "stop_lat":41.160277764,
        "stop_lon":-8.5838055069,
        "stop_url":"https://www.stcp.pt/api/stops/EDRG1/realtime"
    },
    {
        "stop_code":"EDRG2",
        "stop_name":"ESTÁDIO DO DRAGÃO",
        "stop_lat":41.1614403076,
        "stop_lon":-8.581849491,
        "stop_url":"https://www.stcp.pt/api/stops/EDRG2/realtime"
    },
    {
        "stop_code":"PCRJ1",
        "stop_name":"PR. DA CORUJEIRA",
        "stop_lat":41.1569193475,
        "stop_lon":-8.5798649539,
        "stop_url":"https://www.stcp.pt/api/stops/PCRJ1/realtime"
    },
    {
        "stop_code":"BCM1",
        "stop_name":"BOAVISTA-CASA DA MÚSICA",
        "stop_lat":41.1589508076,
        "stop_lon":-8.6294262219,
        "stop_url":"https://www.stcp.pt/api/stops/BCM1/realtime"
    },
    {
        "stop_code":"CRTD",
        "stop_name":"CARTÓDROMO",
        "stop_lat":41.2239983125,
        "stop_lon":-8.7139737343,
        "stop_url":"https://www.stcp.pt/api/stops/CRTD/realtime"
    },
    {
        "stop_code":"ABSS1",
        "stop_name":"AV. DO BESSA",
        "stop_lat":41.1653234939,
        "stop_lon":-8.6430771437,
        "stop_url":"https://www.stcp.pt/api/stops/ABSS1/realtime"
    },
    {
        "stop_code":"ABSS2",
        "stop_name":"AV. DO BESSA",
        "stop_lat":41.1651537122,
        "stop_lon":-8.6432510977,
        "stop_url":"https://www.stcp.pt/api/stops/ABSS2/realtime"
    },
    {
        "stop_code":"MFB2",
        "stop_name":"MERC. FERR. BORGES",
        "stop_lat":41.1414689167,
        "stop_lon":-8.6143773856,
        "stop_url":"https://www.stcp.pt/api/stops/MFB2/realtime"
    },
    {
        "stop_code":"RCP1",
        "stop_name":"R. CERCO DO PORTO",
        "stop_lat":41.1644443897,
        "stop_lon":-8.567277807,
        "stop_url":"https://www.stcp.pt/api/stops/RCP1/realtime"
    },
    {
        "stop_code":"RCP2",
        "stop_name":"R. CERCO DO PORTO",
        "stop_lat":41.1648333137,
        "stop_lon":-8.5673889287,
        "stop_url":"https://www.stcp.pt/api/stops/RCP2/realtime"
    },
    {
        "stop_code":"ZOID1",
        "stop_name":"ZONA INDUSTRIAL",
        "stop_lat":41.2025635283,
        "stop_lon":-8.6087026503,
        "stop_url":"https://www.stcp.pt/api/stops/ZOID1/realtime"
    },
    {
        "stop_code":"ZOID2",
        "stop_name":"ZONA INDUSTRIAL",
        "stop_lat":41.202959538,
        "stop_lon":-8.6088100815,
        "stop_url":"https://www.stcp.pt/api/stops/ZOID2/realtime"
    },
    {
        "stop_code":"SOCR",
        "stop_name":"SOARES CORREIA",
        "stop_lat":41.1667832503,
        "stop_lon":-8.629987463,
        "stop_url":"https://www.stcp.pt/api/stops/SOCR/realtime"
    },
    {
        "stop_code":"QSPL1",
        "stop_name":"QUARTEL SRR. PILAR",
        "stop_lat":41.1374444588,
        "stop_lon":-8.6055000144,
        "stop_url":"https://www.stcp.pt/api/stops/QSPL1/realtime"
    },
    {
        "stop_code":"QSPL2",
        "stop_name":"QUARTEL SRR. PILAR",
        "stop_lat":41.1371944311,
        "stop_lon":-8.6058888705,
        "stop_url":"https://www.stcp.pt/api/stops/QSPL2/realtime"
    },
    {
        "stop_code":"TTS1",
        "stop_name":"TV.TRÁS",
        "stop_lat":41.2200887848,
        "stop_lon":-8.6788770697,
        "stop_url":"https://www.stcp.pt/api/stops/TTS1/realtime"
    },
    {
        "stop_code":"LND2",
        "stop_name":"C. C. LONDRES",
        "stop_lat":41.1907845942,
        "stop_lon":-8.6526165135,
        "stop_url":"https://www.stcp.pt/api/stops/LND2/realtime"
    },
    {
        "stop_code":"AVLH2",
        "stop_name":"AVILHÓ",
        "stop_lat":41.1964722052,
        "stop_lon":-8.6384999988,
        "stop_url":"https://www.stcp.pt/api/stops/AVLH2/realtime"
    },
    {
        "stop_code":"AZC2",
        "stop_name":"AZENHA DE CIMA",
        "stop_lat":41.1799400145,
        "stop_lon":-8.6602285214,
        "stop_url":"https://www.stcp.pt/api/stops/AZC2/realtime"
    },
    {
        "stop_code":"CRST1",
        "stop_name":"CRASTO",
        "stop_lat":41.0992619143,
        "stop_lon":-8.6371446879,
        "stop_url":"https://www.stcp.pt/api/stops/CRST1/realtime"
    },
    {
        "stop_code":"CRVH1",
        "stop_name":"CORDOARIA VELHA",
        "stop_lat":41.1479385619,
        "stop_lon":-8.6504623525,
        "stop_url":"https://www.stcp.pt/api/stops/CRVH1/realtime"
    },
    {
        "stop_code":"CVI2",
        "stop_name":"CARVALHIDO",
        "stop_lat":41.1667499733,
        "stop_lon":-8.6252499484,
        "stop_url":"https://www.stcp.pt/api/stops/CVI2/realtime"
    },
    {
        "stop_code":"ARCO1",
        "stop_name":"ARCO",
        "stop_lat":41.2137228334,
        "stop_lon":-8.6015885649,
        "stop_url":"https://www.stcp.pt/api/stops/ARCO1/realtime"
    },
    {
        "stop_code":"SO3",
        "stop_name":"STO. OVÍDIO",
        "stop_lat":41.1158664056,
        "stop_lon":-8.6068203295,
        "stop_url":"https://www.stcp.pt/api/stops/SO3/realtime"
    },
    {
        "stop_code":"STNH1",
        "stop_name":"SOUTINHO",
        "stop_lat":41.2217673343,
        "stop_lon":-8.5437911617,
        "stop_url":"https://www.stcp.pt/api/stops/STNH1/realtime"
    },
    {
        "stop_code":"TPI2",
        "stop_name":"TV.PIAS",
        "stop_lat":41.2086830909,
        "stop_lon":-8.6488855156,
        "stop_url":"https://www.stcp.pt/api/stops/TPI2/realtime"
    },
    {
        "stop_code":"DPA1",
        "stop_name":"DR.PORFÍRIO ANDRADE",
        "stop_lat":41.1867539805,
        "stop_lon":-8.5580426443,
        "stop_url":"https://www.stcp.pt/api/stops/DPA1/realtime"
    },
    {
        "stop_code":"ASOT1",
        "stop_name":"ALTO DE SOUTELO",
        "stop_lat":41.1667186422,
        "stop_lon":-8.5476703263,
        "stop_url":"https://www.stcp.pt/api/stops/ASOT1/realtime"
    },
    {
        "stop_code":"CVN2",
        "stop_name":"CAVADA NOVA",
        "stop_lat":41.1738055427,
        "stop_lon":-8.5516388682,
        "stop_url":"https://www.stcp.pt/api/stops/CVN2/realtime"
    },
    {
        "stop_code":"BH2",
        "stop_name":"BELO HORIZONTE",
        "stop_lat":41.1538014735,
        "stop_lon":-8.5136754618,
        "stop_url":"https://www.stcp.pt/api/stops/BH2/realtime"
    },
    {
        "stop_code":"CB2",
        "stop_name":"CARVALHA DE BAIXO",
        "stop_lat":41.1639999546,
        "stop_lon":-8.539694476,
        "stop_url":"https://www.stcp.pt/api/stops/CB2/realtime"
    },
    {
        "stop_code":"RGLE2",
        "stop_name":"ROD. GONÇALVES LAGE (ESTE)",
        "stop_lat":41.2053155032,
        "stop_lon":-8.5915322256,
        "stop_url":"https://www.stcp.pt/api/stops/RGLE2/realtime"
    },
    {
        "stop_code":"5OTB2",
        "stop_name":"5 DE OUTUBRO",
        "stop_lat":41.2253122712,
        "stop_lon":-8.6097532541,
        "stop_url":"https://www.stcp.pt/api/stops/5OTB2/realtime"
    },
    {
        "stop_code":"TEIB2",
        "stop_name":"TEIBAS",
        "stop_lat":41.1920429429,
        "stop_lon":-8.593627803,
        "stop_url":"https://www.stcp.pt/api/stops/TEIB2/realtime"
    },
    {
        "stop_code":"GLV2",
        "stop_name":"GIL VICENTE",
        "stop_lat":41.192693084,
        "stop_lon":-8.5810491105,
        "stop_url":"https://www.stcp.pt/api/stops/GLV2/realtime"
    },
    {
        "stop_code":"VN1",
        "stop_name":"VIA NORTE",
        "stop_lat":41.1909444209,
        "stop_lon":-8.6261944024,
        "stop_url":"https://www.stcp.pt/api/stops/VN1/realtime"
    },
    {
        "stop_code":"CBMN",
        "stop_name":"CABO MUNDO",
        "stop_lat":41.2205832952,
        "stop_lon":-8.7133889292,
        "stop_url":"https://www.stcp.pt/api/stops/CBMN/realtime"
    },
    {
        "stop_code":"APDL1",
        "stop_name":"APDL",
        "stop_lat":41.188056454,
        "stop_lon":-8.7030968889,
        "stop_url":"https://www.stcp.pt/api/stops/APDL1/realtime"
    },
    {
        "stop_code":"FTV1",
        "stop_name":"FONTE VILA",
        "stop_lat":41.1886327713,
        "stop_lon":-8.6977422984,
        "stop_url":"https://www.stcp.pt/api/stops/FTV1/realtime"
    },
    {
        "stop_code":"PSOC2",
        "stop_name":"PERPÉTUO SOCORRO",
        "stop_lat":41.1623773076,
        "stop_lon":-8.6036098674,
        "stop_url":"https://www.stcp.pt/api/stops/PSOC2/realtime"
    },
    {
        "stop_code":"MTB4",
        "stop_name":"MONTE DOS BURGOS",
        "stop_lat":41.1812043032,
        "stop_lon":-8.6304536539,
        "stop_url":"https://www.stcp.pt/api/stops/MTB4/realtime"
    },
    {
        "stop_code":"SMAT1",
        "stop_name":"SENHOR MATOSINHOS",
        "stop_lat":41.188327369,
        "stop_lon":-8.6851724096,
        "stop_url":"https://www.stcp.pt/api/stops/SMAT1/realtime"
    },
    {
        "stop_code":"EDM2",
        "stop_name":"ESTR. D. MIGUEL",
        "stop_lat":41.1910833525,
        "stop_lon":-8.521888827,
        "stop_url":"https://www.stcp.pt/api/stops/EDM2/realtime"
    },
    {
        "stop_code":"MSTO1",
        "stop_name":"MONSANTO",
        "stop_lat":41.1705323212,
        "stop_lon":-8.6204271038,
        "stop_url":"https://www.stcp.pt/api/stops/MSTO1/realtime"
    },
    {
        "stop_code":"RL2",
        "stop_name":"RIO LEÇA",
        "stop_lat":41.2361417085,
        "stop_lon":-8.6471374783,
        "stop_url":"https://www.stcp.pt/api/stops/RL2/realtime"
    },
    {
        "stop_code":"BTC2",
        "stop_name":"BOTICA",
        "stop_lat":41.2389141977,
        "stop_lon":-8.6639028775,
        "stop_url":"https://www.stcp.pt/api/stops/BTC2/realtime"
    },
    {
        "stop_code":"BRBQ4",
        "stop_name":"BAIRRO DA BIQUINHA",
        "stop_lat":41.1752777255,
        "stop_lon":-8.6744444817,
        "stop_url":"https://www.stcp.pt/api/stops/BRBQ4/realtime"
    },
    {
        "stop_code":"CSRT3",
        "stop_name":"C.SAÚDE RIO TINTO",
        "stop_lat":41.1745750972,
        "stop_lon":-8.5613708938,
        "stop_url":"https://www.stcp.pt/api/stops/CSRT3/realtime"
    },
    {
        "stop_code":"CSRT4",
        "stop_name":"C.SAÚDE DE RIO TINTO",
        "stop_lat":41.1742698044,
        "stop_lon":-8.5611424784,
        "stop_url":"https://www.stcp.pt/api/stops/CSRT4/realtime"
    },
    {
        "stop_code":"DCS3",
        "stop_name":"DAVID CORREIA DA SILVA",
        "stop_lat":41.1724449151,
        "stop_lon":-8.5603440722,
        "stop_url":"https://www.stcp.pt/api/stops/DCS3/realtime"
    },
    {
        "stop_code":"DCS4",
        "stop_name":"DAVID CORREIA DA SILVA",
        "stop_lat":41.1724784313,
        "stop_lon":-8.5603143799,
        "stop_url":"https://www.stcp.pt/api/stops/DCS4/realtime"
    },
    {
        "stop_code":"PRFL",
        "stop_name":"PR.FILIPA DE LENCASTRE",
        "stop_lat":41.1483046016,
        "stop_lon":-8.6127634736,
        "stop_url":"https://www.stcp.pt/api/stops/PRFL/realtime"
    },
    {
        "stop_code":"CLRG",
        "stop_name":"CLÉRIGOS",
        "stop_lat":41.1455772351,
        "stop_lon":-8.6151449507,
        "stop_url":"https://www.stcp.pt/api/stops/CLRG/realtime"
    },
    {
        "stop_code":"PING3",
        "stop_name":"PRAIA DOS INGLESES",
        "stop_lat":41.15276717,
        "stop_lon":-8.6785492042,
        "stop_url":"https://www.stcp.pt/api/stops/PING3/realtime"
    },
    {
        "stop_code":"PORI2",
        "stop_name":"PRAIA DO OURIGO",
        "stop_lat":41.149376264,
        "stop_lon":-8.6759417701,
        "stop_url":"https://www.stcp.pt/api/stops/PORI2/realtime"
    },
    {
        "stop_code":"HMCH1",
        "stop_name":"HENRIQUE MACHADO",
        "stop_lat":41.1719391209,
        "stop_lon":-8.5537889664,
        "stop_url":"https://www.stcp.pt/api/stops/HMCH1/realtime"
    },
    {
        "stop_code":"CMP2",
        "stop_name":"CAMPANHÃ",
        "stop_lat":41.1484671741,
        "stop_lon":-8.5860384801,
        "stop_url":"https://www.stcp.pt/api/stops/CMP2/realtime"
    },
    {
        "stop_code":"AL1",
        "stop_name":"AV. ALIADOS",
        "stop_lat":41.1472496474,
        "stop_lon":-8.6109728951,
        "stop_url":"https://www.stcp.pt/api/stops/AL1/realtime"
    },
    {
        "stop_code":"AL2",
        "stop_name":"AV. ALIADOS",
        "stop_lat":41.1474721716,
        "stop_lon":-8.6109443772,
        "stop_url":"https://www.stcp.pt/api/stops/AL2/realtime"
    },
    {
        "stop_code":"AL3",
        "stop_name":"AV. ALIADOS",
        "stop_lat":41.1473646178,
        "stop_lon":-8.6114740374,
        "stop_url":"https://www.stcp.pt/api/stops/AL3/realtime"
    },
    {
        "stop_code":"AL7",
        "stop_name":"AV. ALIADOS",
        "stop_lat":41.1481552259,
        "stop_lon":-8.6113580554,
        "stop_url":"https://www.stcp.pt/api/stops/AL7/realtime"
    },
    {
        "stop_code":"VDE1",
        "stop_name":"VILA D'ESTE",
        "stop_lat":41.0955277377,
        "stop_lon":-8.589444466,
        "stop_url":"https://www.stcp.pt/api/stops/VDE1/realtime"
    },
    {
        "stop_code":"CSSM2",
        "stop_name":"C. SAÚDE S. MAMEDE",
        "stop_lat":41.1975020691,
        "stop_lon":-8.6110291625,
        "stop_url":"https://www.stcp.pt/api/stops/CSSM2/realtime"
    },
    {
        "stop_code":"PCID2",
        "stop_name":"PR. CID. SALVADOR",
        "stop_lat":41.1732851581,
        "stop_lon":-8.6892719774,
        "stop_url":"https://www.stcp.pt/api/stops/PCID2/realtime"
    },
    {
        "stop_code":"RSUL1",
        "stop_name":"RECAREI (SUL)",
        "stop_lat":41.2009817125,
        "stop_lon":-8.6333707462,
        "stop_url":"https://www.stcp.pt/api/stops/RSUL1/realtime"
    },
    {
        "stop_code":"RNOR1",
        "stop_name":"RECAREI (NORTE)",
        "stop_lat":41.2049189562,
        "stop_lon":-8.6332092085,
        "stop_url":"https://www.stcp.pt/api/stops/RNOR1/realtime"
    },
    {
        "stop_code":"MAKR4",
        "stop_name":"MAKRO",
        "stop_lat":41.1203888374,
        "stop_lon":-8.626611068,
        "stop_url":"https://www.stcp.pt/api/stops/MAKR4/realtime"
    },
    {
        "stop_code":"AUL1",
        "stop_name":"AUGUSTO LESSA",
        "stop_lat":41.1698566951,
        "stop_lon":-8.6023971814,
        "stop_url":"https://www.stcp.pt/api/stops/AUL1/realtime"
    },
    {
        "stop_code":"AUL2",
        "stop_name":"AUGUSTO LESSA",
        "stop_lat":41.1699770772,
        "stop_lon":-8.6025085051,
        "stop_url":"https://www.stcp.pt/api/stops/AUL2/realtime"
    },
    {
        "stop_code":"ALD1",
        "stop_name":"ALDOAR JUNTA  FREG.",
        "stop_lat":41.1709479175,
        "stop_lon":-8.6706731227,
        "stop_url":"https://www.stcp.pt/api/stops/ALD1/realtime"
    },
    {
        "stop_code":"PCID4",
        "stop_name":"PR. CID. SALVADOR",
        "stop_lat":41.1738306148,
        "stop_lon":-8.6889594942,
        "stop_url":"https://www.stcp.pt/api/stops/PCID4/realtime"
    },
    {
        "stop_code":"CFER2",
        "stop_name":"CONDE FERREIRA",
        "stop_lat":41.1906943958,
        "stop_lon":-8.5064166236,
        "stop_url":"https://www.stcp.pt/api/stops/CFER2/realtime"
    },
    {
        "stop_code":"FTSR4",
        "stop_name":"FONTE DA SENHORA",
        "stop_lat":41.1910735793,
        "stop_lon":-8.5114728551,
        "stop_url":"https://www.stcp.pt/api/stops/FTSR4/realtime"
    },
    {
        "stop_code":"FCR1",
        "stop_name":"FERREIRA DA CRUZ",
        "stop_lat":41.2375609215,
        "stop_lon":-8.6249718323,
        "stop_url":"https://www.stcp.pt/api/stops/FCR1/realtime"
    },
    {
        "stop_code":"FCR2",
        "stop_name":"FERREIRA DA CRUZ",
        "stop_lat":41.2375937539,
        "stop_lon":-8.6251476651,
        "stop_url":"https://www.stcp.pt/api/stops/FCR2/realtime"
    },
    {
        "stop_code":"AC4",
        "stop_name":"ALTINO  COELHO",
        "stop_lat":41.2394529558,
        "stop_lon":-8.6216179717,
        "stop_url":"https://www.stcp.pt/api/stops/AC4/realtime"
    },
    {
        "stop_code":"CSR1",
        "stop_name":"C. SAÚDE RAMALDE",
        "stop_lat":41.1696914917,
        "stop_lon":-8.6538300739,
        "stop_url":"https://www.stcp.pt/api/stops/CSR1/realtime"
    },
    {
        "stop_code":"MLAM",
        "stop_name":"MARIA LAMAS",
        "stop_lat":41.1696275482,
        "stop_lon":-8.6325955035,
        "stop_url":"https://www.stcp.pt/api/stops/MLAM/realtime"
    },
    {
        "stop_code":"JAZ2",
        "stop_name":"JERÓNIMO AZEVEDO",
        "stop_lat":41.1807977506,
        "stop_lon":-8.6457203811,
        "stop_url":"https://www.stcp.pt/api/stops/JAZ2/realtime"
    },
    {
        "stop_code":"LGO3",
        "stop_name":"LICEU GARCIA ORTA",
        "stop_lat":41.1643083099,
        "stop_lon":-8.6680625944,
        "stop_url":"https://www.stcp.pt/api/stops/LGO3/realtime"
    },
    {
        "stop_code":"ALM2",
        "stop_name":"ALAMEDA",
        "stop_lat":41.1416999128,
        "stop_lon":-8.5994315909,
        "stop_url":"https://www.stcp.pt/api/stops/ALM2/realtime"
    },
    {
        "stop_code":"BNJ2",
        "stop_name":"BONJÓIA",
        "stop_lat":41.1517706987,
        "stop_lon":-8.5747431229,
        "stop_url":"https://www.stcp.pt/api/stops/BNJ2/realtime"
    },
    {
        "stop_code":"BCP2",
        "stop_name":"BR.CERCO PORTO",
        "stop_lat":41.1574861068,
        "stop_lon":-8.569976839,
        "stop_url":"https://www.stcp.pt/api/stops/BCP2/realtime"
    },
    {
        "stop_code":"MERL",
        "stop_name":"MEIRAL",
        "stop_lat":41.1487395717,
        "stop_lon":-8.5725401576,
        "stop_url":"https://www.stcp.pt/api/stops/MERL/realtime"
    },
    {
        "stop_code":"BVCT1",
        "stop_name":"BOAVISTA CORREIOS",
        "stop_lat":41.158117921,
        "stop_lon":-8.6278376283,
        "stop_url":"https://www.stcp.pt/api/stops/BVCT1/realtime"
    },
    {
        "stop_code":"CMIC1",
        "stop_name":"CAROLINA MICHAELIS",
        "stop_lat":41.1578819204,
        "stop_lon":-8.6220945228,
        "stop_url":"https://www.stcp.pt/api/stops/CMIC1/realtime"
    },
    {
        "stop_code":"CVI5",
        "stop_name":"CARVALHIDO",
        "stop_lat":41.1667615896,
        "stop_lon":-8.625964015,
        "stop_url":"https://www.stcp.pt/api/stops/CVI5/realtime"
    },
    {
        "stop_code":"PSG",
        "stop_name":"PEDRAS SALGADAS",
        "stop_lat":41.15933329,
        "stop_lon":-8.5691110603,
        "stop_url":"https://www.stcp.pt/api/stops/PSG/realtime"
    },
    {
        "stop_code":"NDA1",
        "stop_name":"NOEDA",
        "stop_lat":41.1461872287,
        "stop_lon":-8.5842231107,
        "stop_url":"https://www.stcp.pt/api/stops/NDA1/realtime"
    },
    {
        "stop_code":"PCC2",
        "stop_name":"PISCINA CAMPANHÃ",
        "stop_lat":41.1500403908,
        "stop_lon":-8.5903377258,
        "stop_url":"https://www.stcp.pt/api/stops/PCC2/realtime"
    },
    {
        "stop_code":"VLN1",
        "stop_name":"VILA NOVA",
        "stop_lat":41.172602092,
        "stop_lon":-8.6643589634,
        "stop_url":"https://www.stcp.pt/api/stops/VLN1/realtime"
    },
    {
        "stop_code":"TVG2",
        "stop_name":"TRAVAGEM",
        "stop_lat":41.2262909935,
        "stop_lon":-8.5538485453,
        "stop_url":"https://www.stcp.pt/api/stops/TVG2/realtime"
    },
    {
        "stop_code":"FND1",
        "stop_name":"FUNDIÇÃO",
        "stop_lat":41.2089996899,
        "stop_lon":-8.5295683481,
        "stop_url":"https://www.stcp.pt/api/stops/FND1/realtime"
    },
    {
        "stop_code":"VASG2",
        "stop_name":"VASCO DA GAMA",
        "stop_lat":41.2160555494,
        "stop_lon":-8.551222217,
        "stop_url":"https://www.stcp.pt/api/stops/VASG2/realtime"
    },
    {
        "stop_code":"PIC1",
        "stop_name":"PICÃO",
        "stop_lat":41.1318372537,
        "stop_lon":-8.6597481192,
        "stop_url":"https://www.stcp.pt/api/stops/PIC1/realtime"
    },
    {
        "stop_code":"JGD1",
        "stop_name":"JORGE DIAS",
        "stop_lat":41.1315872954,
        "stop_lon":-8.6675705594,
        "stop_url":"https://www.stcp.pt/api/stops/JGD1/realtime"
    },
    {
        "stop_code":"PCTO2",
        "stop_name":"PRACETA OLIVEIRAS",
        "stop_lat":41.1113076609,
        "stop_lon":-8.6294237914,
        "stop_url":"https://www.stcp.pt/api/stops/PCTO2/realtime"
    },
    {
        "stop_code":"GENT2",
        "stop_name":"GENERAL TORRES",
        "stop_lat":41.1338332973,
        "stop_lon":-8.6076388491,
        "stop_url":"https://www.stcp.pt/api/stops/GENT2/realtime"
    },
    {
        "stop_code":"ISS2",
        "stop_name":"ISOLINO SOUSA",
        "stop_lat":41.1076483991,
        "stop_lon":-8.6384113563,
        "stop_url":"https://www.stcp.pt/api/stops/ISS2/realtime"
    },
    {
        "stop_code":"SAN1",
        "stop_name":"STO. ANTÓNIO",
        "stop_lat":41.1044389378,
        "stop_lon":-8.640200549,
        "stop_url":"https://www.stcp.pt/api/stops/SAN1/realtime"
    },
    {
        "stop_code":"MVTO1",
        "stop_name":"MOINHO VENTO",
        "stop_lat":41.1039082571,
        "stop_lon":-8.6592268223,
        "stop_url":"https://www.stcp.pt/api/stops/MVTO1/realtime"
    },
    {
        "stop_code":"SALM1",
        "stop_name":"SALGUEIRO MAIA",
        "stop_lat":41.1014444519,
        "stop_lon":-8.5893888669,
        "stop_url":"https://www.stcp.pt/api/stops/SALM1/realtime"
    },
    {
        "stop_code":"VIS4",
        "stop_name":"VISO",
        "stop_lat":41.1774999432,
        "stop_lon":-8.6434167007,
        "stop_url":"https://www.stcp.pt/api/stops/VIS4/realtime"
    },
    {
        "stop_code":"TVFO2",
        "stop_name":"TV.FORNO",
        "stop_lat":41.1943314327,
        "stop_lon":-8.5739892735,
        "stop_url":"https://www.stcp.pt/api/stops/TVFO2/realtime"
    },
    {
        "stop_code":"PMEL2",
        "stop_name":"PEREIRA MELO",
        "stop_lat":41.0946115852,
        "stop_lon":-8.6537786184,
        "stop_url":"https://www.stcp.pt/api/stops/PMEL2/realtime"
    },
    {
        "stop_code":"FNTE1",
        "stop_name":"FONTE",
        "stop_lat":41.22025646,
        "stop_lon":-8.5455925347,
        "stop_url":"https://www.stcp.pt/api/stops/FNTE1/realtime"
    },
    {
        "stop_code":"ERMD1",
        "stop_name":"ERMIDA",
        "stop_lat":41.2221830531,
        "stop_lon":-8.5408362165,
        "stop_url":"https://www.stcp.pt/api/stops/ERMD1/realtime"
    },
    {
        "stop_code":"PFMA2",
        "stop_name":"PROF. MELO ADRIÃO",
        "stop_lat":41.1697546291,
        "stop_lon":-8.6680589695,
        "stop_url":"https://www.stcp.pt/api/stops/PFMA2/realtime"
    },
    {
        "stop_code":"1GTN1",
        "stop_name":"GATANHAL",
        "stop_lat":41.2138987216,
        "stop_lon":-8.6799704562,
        "stop_url":"https://www.stcp.pt/api/stops/1GTN1/realtime"
    },
    {
        "stop_code":"RTP3",
        "stop_name":"RTP",
        "stop_lat":41.1125277936,
        "stop_lon":-8.6005277786,
        "stop_url":"https://www.stcp.pt/api/stops/RTP3/realtime"
    },
    {
        "stop_code":"CBMN2",
        "stop_name":"CABO MUNDO",
        "stop_lat":41.2206666943,
        "stop_lon":-8.7132778086,
        "stop_url":"https://www.stcp.pt/api/stops/CBMN2/realtime"
    },
    {
        "stop_code":"PVC2",
        "stop_name":"PÊRO VAZ CAMINHA",
        "stop_lat":41.1572026729,
        "stop_lon":-8.6671776334,
        "stop_url":"https://www.stcp.pt/api/stops/PVC2/realtime"
    },
    {
        "stop_code":"FCAS1",
        "stop_name":"FERREIRA DE CASTRO",
        "stop_lat":41.1098333342,
        "stop_lon":-8.6111666779,
        "stop_url":"https://www.stcp.pt/api/stops/FCAS1/realtime"
    },
    {
        "stop_code":"DSS",
        "stop_name":"DIONÍSIO SANTOS SILVA",
        "stop_lat":41.1749187495,
        "stop_lon":-8.6068604556,
        "stop_url":"https://www.stcp.pt/api/stops/DSS/realtime"
    },
    {
        "stop_code":"REV1",
        "stop_name":"REVILÃO",
        "stop_lat":41.1732150728,
        "stop_lon":-8.6603763584,
        "stop_url":"https://www.stcp.pt/api/stops/REV1/realtime"
    },
    {
        "stop_code":"REV2",
        "stop_name":"REVILÃO",
        "stop_lat":41.1732466795,
        "stop_lon":-8.6605721656,
        "stop_url":"https://www.stcp.pt/api/stops/REV2/realtime"
    },
    {
        "stop_code":"PFMA1",
        "stop_name":"PROF.MELO ADRIÃO",
        "stop_lat":41.1701876875,
        "stop_lon":-8.6675267495,
        "stop_url":"https://www.stcp.pt/api/stops/PFMA1/realtime"
    },
    {
        "stop_code":"LDDM1",
        "stop_name":"LIDADOR/M.MONIZ",
        "stop_lat":41.1752232467,
        "stop_lon":-8.6614434639,
        "stop_url":"https://www.stcp.pt/api/stops/LDDM1/realtime"
    },
    {
        "stop_code":"APT1",
        "stop_name":"ANTÓNIO PATRÍCIO",
        "stop_lat":41.1591421976,
        "stop_lon":-8.6409149482,
        "stop_url":"https://www.stcp.pt/api/stops/APT1/realtime"
    },
    {
        "stop_code":"APT3",
        "stop_name":"ANTÓNIO PATRÍCIO",
        "stop_lat":41.1586719849,
        "stop_lon":-8.6405708061,
        "stop_url":"https://www.stcp.pt/api/stops/APT3/realtime"
    },
    {
        "stop_code":"QTM1",
        "stop_name":"QUINTA DE MOREIRA",
        "stop_lat":41.2383546123,
        "stop_lon":-8.6480715637,
        "stop_url":"https://www.stcp.pt/api/stops/QTM1/realtime"
    },
    {
        "stop_code":"QTM2",
        "stop_name":"QUINTA DE MOREIRA",
        "stop_lat":41.2381931113,
        "stop_lon":-8.6482449264,
        "stop_url":"https://www.stcp.pt/api/stops/QTM2/realtime"
    },
    {
        "stop_code":"PPR1",
        "stop_name":"PARQUE DA PRELADA",
        "stop_lat":41.1752546186,
        "stop_lon":-8.6275866957,
        "stop_url":"https://www.stcp.pt/api/stops/PPR1/realtime"
    },
    {
        "stop_code":"PPR2",
        "stop_name":"PARQUE DA PRELADA",
        "stop_lat":41.1750731096,
        "stop_lon":-8.6277084306,
        "stop_url":"https://www.stcp.pt/api/stops/PPR2/realtime"
    },
    {
        "stop_code":"HPRL3",
        "stop_name":"HOSPITAL DA PRELADA",
        "stop_lat":41.1699721968,
        "stop_lon":-8.6291111112,
        "stop_url":"https://www.stcp.pt/api/stops/HPRL3/realtime"
    },